[{"lat":43.448458,"lng":-79.665439,"name":"OAKVILLE MES LSRE2104","address":"331 Lakeshore Rd E","connectors":"?","powerKW":3.7},{"lat":43.447935,"lng":-79.665782,"name":"OAKVILLE MES LSRE2103","address":"312 Lakeshore Rd E","connectors":"?","powerKW":3.7},{"lat":43.44942,"lng":-79.66669,"name":"OAKVILLE MES PL082201","address":"334 Randall St","connectors":"?","powerKW":3.7},{"lat":43.448753,"lng":-79.66716,"name":"HSCC GUEST","address":"300 Randall St","connectors":"?","powerKW":3.7},{"lat":43.44598,"lng":-79.66807,"name":"OAKVILLE MES LSRE2102","address":"213 Lakeshore Rd E","connectors":"?","powerKW":3.7},{"lat":43.44542,"lng":-79.66846,"name":"OAKVILLE MES LSRE2101","address":"186 Lakeshore Rd E","connectors":"?","powerKW":3.7},{"lat":43.44569,"lng":-79.66936,"name":"OAKVILLE MES PL022201","address":"184 Church St","connectors":"?","powerKW":3.7},{"lat":43.4466538,"lng":-79.6698542,"name":"The Corporation of the Town of Oakville","address":"334 Randall Street","connectors":"?","powerKW":3.7},{"lat":43.444641,"lng":-79.669832,"name":"The Corporation of the Town of Oakville","address":"72 Washington Street","connectors":"?","powerKW":3.7},{"lat":43.45333,"lng":-79.672809,"name":"OAKVILLE MES OTCC2001","address":"325 Reynolds St","connectors":"?","powerKW":3.7},{"lat":43.4443132298301,"lng":-79.67599065383,"name":"Park Terrace","address":"199 Queen Mary Dr","connectors":"?","powerKW":3.7},{"lat":43.4625497,"lng":-79.6742106,"name":"Recipe Unlimited Corp","address":"481 Cornwall Road","connectors":"?","powerKW":3.7},{"lat":43.4584292373499,"lng":-79.67746801107978,"name":"Swtch Energy","address":"361 Cornwall Rd","connectors":"?","powerKW":3.7},{"lat":43.438119,"lng":-79.6753437,"name":"VICTORIA TER","address":"134 Lakeshore Rd W","connectors":"?","powerKW":3},{"lat":43.438061,"lng":-79.675463,"name":"150 LAKESHORE STATION 1","address":"83 Brock St","connectors":"?","powerKW":3.7},{"lat":43.46428381705792,"lng":-79.67353075463103,"name":"Shops of Oakville South","address":"499 Cornwall Rd","connectors":"?","powerKW":3.7},{"lat":43.439879,"lng":-79.677706,"name":"FACILITIES  TPCC2101","address":"133 Rebecca St","connectors":"?","powerKW":3.7},{"lat":43.455829816716,"lng":-79.680010659913,"name":"Beertown Public House Oakville","address":"271 Cornwall Rd","connectors":"?","powerKW":3.7},{"lat":43.444036,"lng":-79.681449,"name":"OAKVILLE MES PL122","address":"79 Florence Dr","connectors":"?","powerKW":3.7},{"lat":43.458137,"lng":-79.682941,"name":"Oak-Land Ford Lincoln","address":"570 Trafalgar Rd","connectors":"?","powerKW":3.7},{"lat":43.43589518,"lng":-79.68097699,"name":"The Corp of The Town of Oakville","address":"Lakeshore Rd E","connectors":"?","powerKW":3.7},{"lat":43.4480535578683,"lng":-79.6868552511743,"name":"Premier Court","address":"41 Speers Rd","connectors":"?","powerKW":3.7},{"lat":43.454605,"lng":-79.68654,"name":"Tim Hortons #532-Oakville","address":"111 Cross Avenue","connectors":1,"powerKW":7},{"lat":43.458271,"lng":-79.685514,"name":"Holiday Inn Oakville (Centre)","address":"590 Argus RD","connectors":8,"powerKW":16},{"lat":43.458271,"lng":-79.685514,"name":"Holiday Inn Oakville (Centre) - Tesla Destination","address":"590 Argus Rd","connectors":"?","powerKW":3.7},{"lat":43.46769,"lng":-79.68069,"name":"Oakville Honda","address":"500 Iroquois Shore Rd","connectors":"?","powerKW":3.7},{"lat":43.46385,"lng":-79.68507,"name":"Hood Development Corp","address":"360 Oakville Place Dr","connectors":"?","powerKW":3.7},{"lat":43.461607,"lng":-79.6868686,"name":"Oakville Place","address":"240 Leighland Ave","connectors":"?","powerKW":50},{"lat":43.4757938,"lng":-79.6694687,"name":"Oakville Assembly (QR 2000169)","address":"1 The Canadian Road","connectors":"?","powerKW":3.7},{"lat":43.461459,"lng":-79.687645,"name":"RIOCAN STATION 1","address":"240 Leighland Ave","connectors":"?","powerKW":3.7},{"lat":43.4796456582387,"lng":-79.6563410951982,"name":"Maple Grove Plaza","address":"511 Maple Grove Dr","connectors":"?","powerKW":3.7},{"lat":43.479501,"lng":-79.65761,"name":"Swtch Energy","address":"523 Maple Grove Dr","connectors":"?","powerKW":3.7},{"lat":43.462912,"lng":-79.688109,"name":"RIOCAN","address":"240 Leighland Ave","connectors":"?","powerKW":3},{"lat":43.44722,"lng":-79.693488,"name":"JML Electric Inc.","address":"220 Wyecroft RD","connectors":2,"powerKW":6},{"lat":43.44722,"lng":-79.693488,"name":"JML Electric Inc. - Tesla Destination","address":"220 Wyecroft Rd","connectors":"?","powerKW":3.7},{"lat":43.4615818,"lng":-79.6911226,"name":"SWTCH Energy Inc.","address":"1130 Queens Ave","connectors":"?","powerKW":3.7},{"lat":43.4646,"lng":-79.6893,"name":"SWTCH Energy Inc.","address":"291 Queens Ave","connectors":"?","powerKW":3.7},{"lat":43.446888,"lng":-79.694967,"name":"Tim Horton's","address":"228 Wyecroft Rd","connectors":"?","powerKW":3.7},{"lat":43.440964,"lng":-79.69386,"name":"Circle K - Tesla Supercharger","address":"349 Speers Rd","connectors":"?","powerKW":250},{"lat":43.4476403,"lng":-79.6956034,"name":"Budds\u2019 Imported Cars","address":"227 Wyecroft Rd","connectors":"?","powerKW":50},{"lat":43.466686,"lng":-79.689995,"name":"FACILITIES  TOWN2101","address":"1225 Trafalgar Rd","connectors":"?","powerKW":3.7},{"lat":43.4416032980582,"lng":-79.6950445176259,"name":"Trafalgar Egineering Ltd","address":"481 Morden Rd","connectors":"?","powerKW":3.7},{"lat":43.4794705,"lng":-79.674839,"name":"FENGATE STATION","address":"1315 North Service Rd E","connectors":"?","powerKW":3},{"lat":43.479471,"lng":-79.674839,"name":"FENGATE STATION STATION1315-GW","address":"1315 North Service Rd E","connectors":"?","powerKW":3.7},{"lat":43.44991,"lng":-79.69771,"name":"FLO - Canadian Tire - Oakville","address":"1100 Kerr St","connectors":2,"powerKW":320},{"lat":43.4815293,"lng":-79.67308171,"name":"Spark Power","address":"1337 N Service Rd E","connectors":"?","powerKW":3.7},{"lat":43.444482,"lng":-79.701162,"name":"MBO VANS CENTRE 300SS #2","address":"300 South Service Road West","connectors":"?","powerKW":50},{"lat":43.4428817999999,"lng":-79.7013348,"name":"Peak Power Inc","address":"333 Wyecroft Road","connectors":"?","powerKW":3.7},{"lat":43.442091,"lng":-79.701188,"name":"Inception Automotive Detailing","address":"345 Wyecroft RD #2","connectors":3,"powerKW":16},{"lat":43.48431,"lng":-79.626987,"name":"IESO","address":"2635 Lakeshore Rd W","connectors":"?","powerKW":3},{"lat":43.44156744,"lng":-79.70127207,"name":"Charger #8","address":"355 Wyecroft Rd","connectors":"?","powerKW":50},{"lat":43.44082,"lng":-79.70194,"name":"Oakville Transit Facility, ON Canada DC-12","address":"430 Wyecroft Rd","connectors":"?","powerKW":50},{"lat":43.449372,"lng":-79.703723,"name":"Dorval Crossing East","address":"200-240 North Service Road West","connectors":"?","powerKW":3.7},{"lat":43.449372,"lng":-79.703723,"name":"Dorval Crossing East","address":"200-240 North Service Road West","connectors":"?","powerKW":3.7},{"lat":43.4896996,"lng":-79.6470527,"name":"Peak Power Inc","address":"2360 Cornwall Road","connectors":"?","powerKW":3.7},{"lat":43.486341,"lng":-79.627664,"name":"IESO IESO-3","address":"2635 Lakeshore Rd W","connectors":"?","powerKW":3.7},{"lat":43.490659,"lng":-79.6581389,"name":"SWTCH Energy","address":"2235 Sheridan Garden Dr","connectors":"?","powerKW":3.7},{"lat":43.48784362,"lng":-79.67540803,"name":"Siemens Canada HQ","address":"1577 N Service Rd E","connectors":"?","powerKW":3.7},{"lat":43.4903621915,"lng":-79.6716380889,"name":"Canada HQ 5 (QR 2000535)","address":"The Canadian Road","connectors":"?","powerKW":3.7},{"lat":43.435585,"lng":-79.70641,"name":"OH Customers","address":"861 Redwood Square","connectors":"?","powerKW":3.7},{"lat":43.489393,"lng":-79.620616,"name":"STATION 1 STATION 01","address":"2424 Lakeshore Road West","connectors":"?","powerKW":3.7},{"lat":43.481827,"lng":-79.694648,"name":"Upper Oakville Shopping Centre - Tesla Supercharger","address":"1011 Upper Middle Rd E","connectors":"?","powerKW":50},{"lat":43.490435,"lng":-79.678774,"name":"JOSHUAS CREEK JOSHUAS CREEK 5","address":"1415 Joshuas Creek Dr","connectors":"?","powerKW":3.7},{"lat":43.49063,"lng":-79.678764,"name":"JOSHUAS CREEK JOSHUAS CREEK 4","address":"1415 Joshuas Creek Dr","connectors":"?","powerKW":3.7},{"lat":43.482363,"lng":-79.695308,"name":"Upper Oakville Shopping Centre","address":"1011 Upper Middle Road East","connectors":"?","powerKW":3.7},{"lat":43.492016,"lng":-79.676575,"name":"FACILITIES  JCCC2101","address":"1663 North Service Rd E","connectors":"?","powerKW":3.7},{"lat":43.4868771,"lng":-79.7003842,"name":"The Corporation of the Town of Oakville","address":"1051 Glenashton Drive","connectors":"?","powerKW":3.7},{"lat":43.488105,"lng":-79.701486,"name":"FACILITIES  IRCC2201","address":"1051 Glenashton Dr","connectors":"?","powerKW":3.7},{"lat":43.429386,"lng":-79.720216,"name":"STATION","address":"1355 North Service Rd W","connectors":"?","powerKW":3},{"lat":43.50335,"lng":-79.66871,"name":"Hilton Garden Oakville","address":"2774 South Sheridan Way","connectors":"?","powerKW":3.7},{"lat":43.4707041,"lng":-79.7223568,"name":"The Corporation of the Town of Oakville","address":"2400 Sixth Line","connectors":"?","powerKW":3.7},{"lat":43.504355,"lng":-79.671622,"name":"FENGATE STATION STATION2275-GW","address":"2275 Upper Middle East Road","connectors":"?","powerKW":3.7},{"lat":43.5043553,"lng":-79.6716223,"name":"FENGATE STATION","address":"2275 Upper Middle East Road","connectors":"?","powerKW":3},{"lat":43.471264,"lng":-79.72316,"name":"FACILITIES  ROCC2201","address":"2400 Sixth Line","connectors":"?","powerKW":3.7},{"lat":43.4182829,"lng":-79.71679080000001,"name":"Oakville Yamaha","address":"615 Third Line ","connectors":1,"powerKW":11.5},{"lat":43.4270782,"lng":-79.7242706,"name":"Budds\u2019 Mazda Oakville - Exterior","address":"1501 north service rd west","connectors":"?","powerKW":3.7},{"lat":43.5068509,"lng":-79.6697606,"name":"FENGATE STATION","address":"2010 Winston Park Dr","connectors":"?","powerKW":3},{"lat":43.506851,"lng":-79.669761,"name":"FENGATE STATION 2010WINSTON-GW1","address":"2010 Winston Park Dr","connectors":"?","powerKW":3.7},{"lat":43.506886,"lng":-79.625885,"name":"802 Southdown Rd","address":"802 Southdown Road","connectors":"?","powerKW":3.7},{"lat":43.47953631,"lng":-79.72143806,"name":"2365 Central Park Drive (HSCC 526)","address":"2365 Central Park Dr","connectors":"?","powerKW":3.7},{"lat":43.42637,"lng":-79.726171,"name":"Tim Horton's","address":"1530 N Service Rd W","connectors":"?","powerKW":50},{"lat":43.421889,"lng":-79.72351,"name":"Ancam Solutions Company Ltd.","address":"2009 Wyecroft Rd","connectors":"?","powerKW":3.7},{"lat":43.5087367,"lng":-79.6289806,"name":"Canadian Tire Corp","address":"900-980 Southdown Rd","connectors":"?","powerKW":50},{"lat":43.5089234299526,"lng":-79.6289806017331,"name":"Baseload Power Corp","address":"900-980 Southdown Rd","connectors":"?","powerKW":50},{"lat":43.48617,"lng":-79.71817,"name":"INDIGO PARK CTO593","address":"297 Oak Walk Dr","connectors":"?","powerKW":3.7},{"lat":43.4884395540035,"lng":-79.7163836875026,"name":"Longo Brothers Fruit Markets Inc","address":"338 Dundas St E","connectors":"?","powerKW":3.7},{"lat":43.48754323513165,"lng":-79.71735779957523,"name":"Jule - Longo's","address":"338 Dundas St East","connectors":7,"powerKW":75},{"lat":43.48868564986611,"lng":-79.71615958656326,"name":"Ivy - Oakville Canadian Tire","address":"400 Dundas Street East","connectors":"?","powerKW":100},{"lat":43.486464,"lng":-79.718799,"name":"Indigo Park Canada Inc","address":"297 Oak Walk","connectors":"?","powerKW":3.7},{"lat":43.478326,"lng":-79.726516,"name":"Swtch Energy","address":"15-19 Hays Blvd","connectors":"?","powerKW":3.7},{"lat":43.4973,"lng":-79.7082,"name":"SWTCH Energy Inc.","address":"2480 Prince Michael Dr","connectors":"?","powerKW":3.7},{"lat":43.51192,"lng":-79.66933,"name":"Homewood Suites Oakville","address":"2095 Winston Park Dr","connectors":"?","powerKW":3.7},{"lat":43.498426,"lng":-79.706779,"name":"Swtch Energy","address":"2501 Prince Michael Dr","connectors":"?","powerKW":3.7},{"lat":43.436363,"lng":-79.73927,"name":"FACILITIES  GACC2101","address":"1415 Third Line","connectors":"?","powerKW":3.7},{"lat":43.515172,"lng":-79.6698268,"name":"Hatch Ltd. - 2800 Speakman Drive","address":"2 Speakman Drive","connectors":"?","powerKW":3.7},{"lat":43.51481,"lng":-79.67211,"name":"WIC WESTBURY - 2","address":"2201 Bristol Circle","connectors":"?","powerKW":3.7},{"lat":43.405182,"lng":-79.718779,"name":"FACILITIES  QQEC2201","address":"2302 Bridge Rd","connectors":"?","powerKW":3.7},{"lat":43.4065393,"lng":-79.7209853,"name":"The Corporation of the Town of Oakville","address":"2302 Bridge Road","connectors":"?","powerKW":3.7},{"lat":43.395371,"lng":-79.70499094,"name":"The Corp of The Town of Oakville","address":"2340 Ontario St","connectors":"?","powerKW":3.7},{"lat":43.41671011278839,"lng":-79.73145006798404,"name":"Oakville Porsche","address":"2250 S Service Rd","connectors":"?","powerKW":3.7},{"lat":43.518128,"lng":-79.653215,"name":"Combined Air","address":"1670 Finfar Ct","connectors":"?","powerKW":3.7},{"lat":43.395481,"lng":-79.706573,"name":"OAKVILLE MES ONTA2201","address":"2353 Ontario St","connectors":"?","powerKW":3.7},{"lat":43.516262,"lng":-79.67876,"name":"GCA GCA EV 1","address":"2941 Brighton Rd","connectors":"?","powerKW":3.7},{"lat":43.515201,"lng":-79.683331,"name":"Winston Park - Geotab","address":"2440 Winston Park Dr.","connectors":"?","powerKW":3.7},{"lat":43.40915193,"lng":-79.72761924,"name":"Fruition Fruits and Fills","address":"2379 Speers Rd","connectors":"?","powerKW":3.7},{"lat":43.51546,"lng":-79.683358,"name":"GEOTAB GEOTAB 0973","address":"2440 Winston Park Dr","connectors":"?","powerKW":3.7},{"lat":43.515948,"lng":-79.682943,"name":"GEOTAB 091F","address":"2440 Winston Park Dr","connectors":"?","powerKW":3.7},{"lat":43.393875,"lng":-79.709496,"name":"OAKVILLE MES BRON2101","address":"49 Bronte Rd","connectors":"?","powerKW":3.7},{"lat":43.3948,"lng":-79.71204,"name":"Bronte Village Limited Partnership","address":"125 Bronte Rd","connectors":"?","powerKW":3.7},{"lat":43.4657215,"lng":-79.7467477,"name":"The Corporation of the Town of Oakville","address":"3070 Neyagawa Boulevard","connectors":"?","powerKW":3.7},{"lat":43.5187,"lng":-79.6799,"name":"SWTCH Energy Inc.","address":"2947 Portland Dr","connectors":"?","powerKW":3.7},{"lat":43.4130744,"lng":-79.73565049999999,"name":"Lockwood Kia","address":"2400 S Service Rd","connectors":"?","powerKW":3.7},{"lat":43.412357,"lng":-79.735076,"name":"OAKVILLE STATION #1","address":"770 Pacific Rd","connectors":"?","powerKW":3.7},{"lat":43.516814,"lng":-79.6888483,"name":"Recipe Unlimited Corp","address":"3051 Vega Blvd","connectors":"?","powerKW":3.7},{"lat":43.517883,"lng":-79.688454,"name":"Mississauga, ON - Vega Boulevard - Tesla Supercharger","address":"3055 Vega Blvd","connectors":"?","powerKW":50},{"lat":43.51801834092788,"lng":-79.6882757430588,"name":"Tesla/NACS Supercharger - Mississauga, Vega Blvd","address":"3055 Vega Blvd","connectors":20,"powerKW":250},{"lat":43.466068,"lng":-79.749276,"name":"FACILITIES  SMCC2201","address":"3070 Neyagawa Blvd","connectors":"?","powerKW":3.7},{"lat":43.411776,"lng":-79.737234,"name":"BUDDS BMW STATION 01","address":"2430 S Service Rd W","connectors":"?","powerKW":3.7},{"lat":43.40936,"lng":-79.73526,"name":"HYUNDAIOAKVILLE SALES","address":"2500 S Service Rd W","connectors":"?","powerKW":3.7},{"lat":43.409016,"lng":-79.734985,"name":"HYUNDAIOAKVILLE SERVICE","address":"2500 S Service Rd W","connectors":"?","powerKW":3.7},{"lat":43.4111016,"lng":-79.7368414,"name":"BUDDS BMW","address":"2454 S Service Rd","connectors":"?","powerKW":40},{"lat":43.52453,"lng":-79.6508,"name":"Hampton Inn Mississauga West","address":"2085 N Sheridan Way","connectors":"?","powerKW":3.7},{"lat":43.5270070057408,"lng":-79.6837186758582,"name":"Longo Brothers Fruit Markets Inc","address":"3163 Winston Churchill Blvd","connectors":"?","powerKW":3.7},{"lat":43.52699,"lng":-79.68519,"name":"Jule - Longo's Winston Churchill","address":"3163 Winston Churchill Blvd","connectors":6,"powerKW":175},{"lat":43.528979,"lng":-79.676954,"name":"ERIN MILLS MITS","address":"2477 Motorway Blvd","connectors":"?","powerKW":3},{"lat":43.53030393,"lng":-79.67591945,"name":"Erinwood Ford","address":"2395 Motorway Blvd","connectors":"?","powerKW":50},{"lat":43.53034240671781,"lng":-79.675982707266,"name":"Jule - Erinwood Ford","address":"2395 Motorway Blvd","connectors":3,"powerKW":150},{"lat":43.530488,"lng":-79.67748,"name":"STATION 1 BLVD.","address":"2420 Motorway Blvd","connectors":"?","powerKW":3},{"lat":43.527024,"lng":-79.607578,"name":"Lorne Park Water Treatment Plant","address":"1180 Lakeshore Road West","connectors":1,"powerKW":6.24},{"lat":43.521278,"lng":-79.710583,"name":"3750B Laird Road","address":"3750B Laird Road","connectors":"?","powerKW":3.7},{"lat":43.450482,"lng":-79.765739,"name":"HHEALTHCARE OTMH STATION 1","address":"3001 Hospital Gate","connectors":"?","powerKW":3.7},{"lat":43.4974216,"lng":-79.7456984,"name":"Tafia / 65 Loyalist / Front Parking Lot","address":"65 Loyalist Trail","connectors":"?","powerKW":3.7},{"lat":43.450638,"lng":-79.766029,"name":"HHEALTHCARE OTMH STATION 5","address":"3001 Hospital Gate","connectors":"?","powerKW":3.7},{"lat":43.450695,"lng":-79.76612,"name":"HHEALTHCARE OTMH STATION 7","address":"3001 Hospital Gate","connectors":"?","powerKW":3.7},{"lat":43.522583,"lng":-79.709389,"name":"3750A Laird Road","address":"3750A Laird Road","connectors":"?","powerKW":3.7},{"lat":43.522583,"lng":-79.709389,"name":"3750A Laird Road","address":"3750A Laird Road","connectors":"?","powerKW":3.7},{"lat":43.3850494716162,"lng":-79.7349829250383,"name":"Shell Canada","address":"3451 Rebecca St","connectors":"?","powerKW":50},{"lat":43.3850037828561,"lng":-79.73519366447016,"name":"Shell Recharge - C22005 Oakville EV","address":"3451 Rebecca Street","connectors":3,"powerKW":50},{"lat":43.3964291,"lng":-79.7494071,"name":"Nike Factory Store","address":"3509 Wyecroft Rd","connectors":"?","powerKW":50},{"lat":43.383012,"lng":-79.734626,"name":"Salt Spring Studios","address":"3342 Whilabout Ter","connectors":"?","powerKW":3.7},{"lat":43.4337,"lng":-79.7739,"name":"SWTCH Energy Inc.","address":"2450 Old Bronte Rd","connectors":"?","powerKW":3.7},{"lat":43.3948628,"lng":-79.7522268,"name":"Recipe Unlimited Corp","address":"3529 Wyecroft Road","connectors":"?","powerKW":3.7},{"lat":43.38315,"lng":-79.738699,"name":"N-FB-0954, 3515-3545 Rebecca Street","address":"3535 Rebecca Street","connectors":"?","powerKW":3.7},{"lat":43.3924366,"lng":-79.7520166,"name":"Recipe Unlimited Corp","address":"3549 Wyecroft Road","connectors":"?","powerKW":3.7},{"lat":43.544418285293,"lng":-79.6685952790472,"name":"The Palace","address":"1900 The Collegeway","connectors":"?","powerKW":3.7},{"lat":43.397474,"lng":-79.761097,"name":"Courtyard By Marriott Burlington","address":"1110 Burloak DR","connectors":2,"powerKW":16},{"lat":43.397474,"lng":-79.761097,"name":"Courtyard by Marriott Burlington - Tesla Destination","address":"1110 Burloak Dr","connectors":"?","powerKW":3.7},{"lat":43.397978,"lng":-79.761845,"name":"Burlington Convention Centre","address":"1120 Burloak DR","connectors":4,"powerKW":16},{"lat":43.397978,"lng":-79.761845,"name":"Burlington Convention Centre - Tesla Destination","address":"1120 Burloak Dr","connectors":"?","powerKW":3.7},{"lat":43.386365,"lng":-79.751266,"name":"SHERWOOD PARK SHERWOOD PARK","address":"5270 Fairview Street","connectors":"?","powerKW":3.7},{"lat":43.54826,"lng":-79.660065,"name":"UTM PARKING STATION 3","address":"1820 Outer Cir","connectors":"?","powerKW":3.7},{"lat":43.55776,"lng":-79.707164,"name":"ARC EV 1","address":"2550 Eglinton Ave W","connectors":"?","powerKW":3.7},{"lat":43.5578926,"lng":-79.7068346,"name":"ERIN MILLS","address":"2550 Eglinton Ave W","connectors":"?","powerKW":3.7},{"lat":43.558784,"lng":-79.7066,"name":"Trillium Health Partner","address":"2200 Eginton Ave W","connectors":"?","powerKW":3.7},{"lat":43.559998,"lng":-79.704062,"name":"ZENWAY EV CHARGER 2","address":"6220 highway 7","connectors":"?","powerKW":3.7},{"lat":43.567596,"lng":-79.664159,"name":"1270-1300 Central","address":"1270-1300 Central Pkway W. Mississauga","connectors":"?","powerKW":7.6},{"lat":43.5697139,"lng":-79.6535412,"name":"EDTF","address":"933 Central Pkwy W","connectors":"?","powerKW":3},{"lat":43.57094,"lng":-79.6549,"name":"The Regional Municipality of Peel","address":"975 Central Parkway","connectors":"?","powerKW":3.7},{"lat":43.54995130890171,"lng":-79.61650330627343,"name":"Shell Recharge - C02536 Sheridan Way","address":"780 South Sheridan Way","connectors":2,"powerKW":100},{"lat":43.5502475299497,"lng":-79.6158521728019,"name":"Shell Canada","address":"780 S Sheridan Way","connectors":"?","powerKW":50},{"lat":43.5681,"lng":-79.63316,"name":"Park + Charge - RC Superst Mavis Rd","address":"3045 Mavis Road","connectors":8,"powerKW":150},{"lat":43.558011,"lng":-79.743846,"name":"Stephen Lewis Secondary School","address":"3675 Thomas St","connectors":"?","powerKW":3.7},{"lat":43.5801567,"lng":-79.6470088,"name":"RioCan Grand Park","address":"3920-3980 Grand Park Dr","connectors":"?","powerKW":3.7},{"lat":43.582464,"lng":-79.713459,"name":"Church St","address":"173 Church St","connectors":"?","powerKW":3.7},{"lat":43.5826,"lng":-79.714294,"name":"STREETSVILLE STREETSVILLE 2","address":"7 Water Street","connectors":"?","powerKW":3.7},{"lat":43.54532498,"lng":-79.59311563,"name":"Elexicon Group","address":"270 Lakeshore Rd W","connectors":"?","powerKW":3.7},{"lat":43.57865,"lng":-79.63191,"name":"Peak Power Inc","address":"50 & 90 Burnhamthorpe Road West","connectors":"?","powerKW":3.7},{"lat":43.5834808349609,"lng":-79.7146453857421,"name":"The Regional Municipality of Peel","address":"170 Church Street","connectors":"?","powerKW":3.7},{"lat":43.545547,"lng":-79.592438,"name":"Credit Landing Plaza","address":"250 Lakeshore Rd W","connectors":"?","powerKW":3.7},{"lat":43.582593,"lng":-79.638964,"name":"Parkways West Shopping Centre","address":"325 Central Parkway West","connectors":"?","powerKW":3.7},{"lat":43.5460339,"lng":-79.5909054,"name":"Brightwater Phase 1-3","address":"230 Missinnhe Way","connectors":"?","powerKW":3.7},{"lat":43.585296,"lng":-79.645928,"name":"INDIGO PARK CTO532-04","address":"4011 Brickstone Mews","connectors":"?","powerKW":3.7},{"lat":43.586104,"lng":-79.648718,"name":"INDIGO PARK CTO534-01","address":"4085 Parkside Village Drive","connectors":"?","powerKW":3.7},{"lat":43.545839,"lng":-79.5900574,"name":"Brightwater Phase 1-4","address":"220 Missinnihe Way","connectors":"?","powerKW":3.7},{"lat":43.5468509,"lng":-79.5904369,"name":"Brightwater Phase 1-1","address":"215 Lakeshore Road West","connectors":"?","powerKW":3.7},{"lat":43.5474123,"lng":-79.589842,"name":"Brightwater Phase 1-2","address":"175 Lakeshore Road West","connectors":"?","powerKW":3.7},{"lat":43.58680113,"lng":-79.6432964,"name":"YMCA of Greater Toronto","address":"325 Burnhamthorpe Road West","connectors":"?","powerKW":3.7},{"lat":43.580065,"lng":-79.734589,"name":"OC CHARGERS CP5","address":"6077 Erin Mills Pkwy","connectors":"?","powerKW":3.7},{"lat":43.579865,"lng":-79.735678,"name":"OC CHARGERS CP2","address":"6111 Erin Mills Parkway","connectors":"?","powerKW":3.7},{"lat":43.572125,"lng":-79.610999,"name":"101 - Queensway Professional Centre - P2 [Workplace] - Tesla Destination","address":"101 Queensway West","connectors":"?","powerKW":3.7},{"lat":43.589064,"lng":-79.649314,"name":"PSCC GP3CHICAGOCONDO","address":"385 Prince of Wales Dr","connectors":"?","powerKW":3.7},{"lat":43.580088,"lng":-79.736205,"name":"OC CHARGERS CP1","address":"6111 Erin Mills Parkway","connectors":"?","powerKW":3.7},{"lat":43.590185,"lng":-79.65271,"name":"MIRAGECONDO MIRAGE","address":"339 Rathburn Rd W","connectors":"?","powerKW":3.7},{"lat":43.580544,"lng":-79.737135,"name":"OC CHARGERS CP3","address":"6111 Erin Mills Parkway","connectors":"?","powerKW":3.7},{"lat":43.588413,"lng":-79.642544,"name":"Mississauga Central Library","address":"301 Burnhamthorpe Rd. W.","connectors":"?","powerKW":3.7},{"lat":43.587952,"lng":-79.640782,"name":"EVCITYGATE AFPQO000000E6C1","address":"3939 Duke of York Boulevard","connectors":"?","powerKW":3.7},{"lat":43.55043,"lng":-79.58697,"name":"The Regional Municipality of Peel","address":"105 Lakeshore Rd West","connectors":"?","powerKW":3.7},{"lat":43.549724,"lng":-79.586235,"name":"MARINA PARK MARINA PARK 2","address":"15 Front Street South","connectors":"?","powerKW":3.7},{"lat":43.581787,"lng":-79.73692,"name":"OC CHARGERS CP4","address":"6155 Erin Mills Pkwy","connectors":"?","powerKW":3.7},{"lat":43.590507,"lng":-79.647181,"name":"SHERIDAN  SHERIDAN 4","address":"4171 Living Arts Dr","connectors":"?","powerKW":3.7},{"lat":43.5898323059082,"lng":-79.6440734863281,"name":"The Regional Municipality of Peel","address":"4171 Living Art Dr","connectors":"?","powerKW":3.7},{"lat":43.58943,"lng":-79.641587,"name":"MORGUARD CITY CENTRE 201","address":"201 City Centre Dr","connectors":"?","powerKW":3.7},{"lat":43.591032,"lng":-79.643434,"name":"SQUARE ONE EV 1","address":"100 City Centre Drive","connectors":"?","powerKW":3.7},{"lat":43.5834681,"lng":-79.6203344,"name":"EV Connect - Scotiabank Mississauga","address":"3295 Kirwin Avenue","connectors":"?","powerKW":50},{"lat":43.58060838,"lng":-79.61320783,"name":"75 King Street East","address":"75 King St E","connectors":"?","powerKW":3.7},{"lat":43.5909996,"lng":-79.63680267,"name":"SWTCH Energy Inc.","address":"90 Burnhamthorpe  Rd W","connectors":"?","powerKW":3.7},{"lat":43.593214,"lng":-79.642592,"name":"Sheridan College Hazel McCallion Campus","address":"4180 Duke of York Blvd","connectors":"?","powerKW":3.7},{"lat":43.648347,"lng":-79.387116,"name":"ImPark","address":"211 Adelaide St W","connectors":"?","powerKW":3.7},{"lat":43.6498171,"lng":-79.3938398,"name":"GreenP - CP262 - 10 Soho St","address":"10 Soho St","connectors":"?","powerKW":3.7},{"lat":43.64817,"lng":-79.387034,"name":"211 Adelaide St (Bentall Green Oak)","address":"211 Adelaide St W","connectors":"?","powerKW":3.7},{"lat":43.648087094851,"lng":-79.392892163263,"name":"Crown Property Management Inc","address":"111 Peter St","connectors":"?","powerKW":3.7},{"lat":43.649135,"lng":-79.386237,"name":"Shangri-la Hotel Toronto","address":"188 University Ave","connectors":4,"powerKW":16},{"lat":43.646968,"lng":-79.390997,"name":"CINEMA TOWER EV 2","address":"27 Widmer St","connectors":"?","powerKW":3.7},{"lat":43.65239,"lng":-79.38713,"name":"Peak Power Inc","address":"36 Toronto Street","connectors":"?","powerKW":3.7},{"lat":43.64787065,"lng":-79.39338301,"name":"108 Peter Street","address":"108 Peter St","connectors":"?","powerKW":3.7},{"lat":43.646665,"lng":-79.390965,"name":"FESTIVAL TOWER EV 3","address":"5 Widmer St","connectors":"?","powerKW":3.7},{"lat":43.649229,"lng":-79.385197,"name":"Adelaide Place","address":"181 University Ave","connectors":"?","powerKW":3.7},{"lat":43.6483321,"lng":-79.3855012,"name":"Swtch Energy","address":"154 University Ave","connectors":"?","powerKW":3.7},{"lat":43.6534996,"lng":-79.38829803,"name":"SWTCH Energy Inc.","address":"400 University Ave","connectors":"?","powerKW":3.7},{"lat":43.6533951,"lng":-79.39221,"name":"GreenP - CP221 - 121 St Patrick St","address":"121 St Patrick Street","connectors":"?","powerKW":3.7},{"lat":43.6536654605,"lng":-79.3882847357982,"name":"Crown Property Management Inc","address":"400 University Ave","connectors":"?","powerKW":3.7},{"lat":43.649616,"lng":-79.384656,"name":"ADELAIDE PLACE SP DREAM 1","address":"150 York St","connectors":"?","powerKW":3.7},{"lat":43.64615,"lng":-79.38889,"name":"Metro Hall","address":"55 John St","connectors":"?","powerKW":3.7},{"lat":43.647823,"lng":-79.385473,"name":"200 KING 200 KING STN 2","address":"200 King St W","connectors":"?","powerKW":3.7},{"lat":43.6519173,"lng":-79.3849877,"name":"Toronto Parking Authority","address":"110 Queen St W","connectors":"?","powerKW":3.7},{"lat":43.648181,"lng":-79.3849029,"name":"BentallGreenOak - 150 King","address":"150 King Street West","connectors":"?","powerKW":3.7},{"lat":43.654312,"lng":-79.38888,"name":"ADELAIDE PLACE DREAM U-1","address":"438 University Ave","connectors":"?","powerKW":3.7},{"lat":43.645674,"lng":-79.388826,"name":"City of Toronto","address":"55 John Street (Metro Hall)","connectors":"?","powerKW":3.7},{"lat":43.645631,"lng":-79.390857,"name":"Hotel le Germain - Toronto","address":"30 Mercer St","connectors":2,"powerKW":16},{"lat":43.6520073262171,"lng":-79.3844685833505,"name":"FLO - CP36 | 110 Queen St W","address":"100 Queen Street West","connectors":11,"powerKW":50},{"lat":43.653998,"lng":-79.387212,"name":"ImPark - University Centre","address":"393 University Ave","connectors":"?","powerKW":50},{"lat":43.649693,"lng":-79.383812,"name":"ImPark","address":"30 Adelaide St W","connectors":"?","powerKW":3.7},{"lat":43.647284,"lng":-79.384965,"name":"CHARGEPOINT CA SIERRA 1","address":"100 University Ave","connectors":"?","powerKW":3.7},{"lat":43.64564,"lng":-79.387256,"name":"The Ritz-Carlton, Toronto","address":"181 Wellington St W","connectors":2,"powerKW":16},{"lat":43.651911,"lng":-79.383897,"name":"Nathan Phillips Square","address":"110 Queen St W","connectors":"?","powerKW":3.7},{"lat":43.645829,"lng":-79.386532,"name":"FLO - Cadillac Fairview - RBC Centre - P1 Level","address":"155 Wellington Street West","connectors":"?","powerKW":3.7},{"lat":43.653996,"lng":-79.38613,"name":"OCJT STATION 1","address":"11 Centre Ave","connectors":"?","powerKW":3.7},{"lat":43.654045,"lng":-79.386154,"name":"OCJT STATION 2","address":"11 Centre Ave","connectors":"?","powerKW":3.7},{"lat":43.650016,"lng":-79.383202,"name":"Richmond Adelaide Centre","address":"120 Adelaide St W","connectors":"?","powerKW":3.7},{"lat":43.646361,"lng":-79.385383,"name":"180 WELLINGTON STATION1-GW","address":"180 Wellington St W","connectors":"?","powerKW":3.7},{"lat":43.64670181,"lng":-79.38469696,"name":"SWTCH Energy Inc.","address":"70 University Ave","connectors":"?","powerKW":3.7},{"lat":43.647454,"lng":-79.383946,"name":"145 KING 145 KING ST2","address":"145 King St W","connectors":"?","powerKW":3.7},{"lat":43.646492,"lng":-79.384815,"name":"70 University Avenue, Toronto, ON","address":"70 University Avenue","connectors":"?","powerKW":3.7},{"lat":43.652052,"lng":-79.383316,"name":"GreenP - CP36 - 110 Queen St W. - 1","address":"110 Queen St W","connectors":"?","powerKW":3.7},{"lat":43.6526474,"lng":-79.3964301,"name":"Toronto Parking Authority","address":"40 Larch St","connectors":"?","powerKW":3.7},{"lat":43.65467,"lng":-79.38617,"name":"DoubleTree Downtown Toronto","address":"108 Chestnut St","connectors":"?","powerKW":3.7},{"lat":43.649795,"lng":-79.382481,"name":"ImPark","address":"100 Adelaide St W","connectors":"?","powerKW":3.7},{"lat":43.647873,"lng":-79.38294,"name":"121 KING ST W STATION 3","address":"121 King St W","connectors":"?","powerKW":3.7},{"lat":43.644554,"lng":-79.391399,"name":"ImPark","address":"277 Wellington St W","connectors":"?","powerKW":3.7},{"lat":43.650705,"lng":-79.397677,"name":"INDIGO PARK CTO404-02","address":"222 Spadina Ave.","connectors":"?","powerKW":3.7},{"lat":43.653618,"lng":-79.384069,"name":"City of Toronto","address":"100 Queen Street West (City Hall","connectors":"?","powerKW":3.7},{"lat":43.6466193,"lng":-79.3837587,"name":"55 University Ave","address":"55 University Ave","connectors":"?","powerKW":3.7},{"lat":43.644654,"lng":-79.39256,"name":"The SoHo Hotel and Residences - Tesla Destination","address":"350 Wellington St W","connectors":"?","powerKW":3.7},{"lat":43.644654,"lng":-79.39256,"name":"The Soho Hotel and Residences","address":"350 Wellington St W","connectors":4,"powerKW":16},{"lat":43.644364,"lng":-79.390754,"name":"INDIGO PARK CTO019-04","address":"320 Front St W","connectors":"?","powerKW":3.7},{"lat":43.64890875,"lng":-79.3976906,"name":"YMCA of Greater Toronto","address":"7 Vanauley St","connectors":"?","powerKW":3.7},{"lat":43.644333,"lng":-79.390786,"name":"INDIGO PARK CTO019-03","address":"320 Front St W","connectors":"?","powerKW":3.7},{"lat":43.64434,"lng":-79.390936,"name":"INDIGO PARK CTO019-02","address":"320 Front St W","connectors":"?","powerKW":3.7},{"lat":43.650768,"lng":-79.397875,"name":"INDIGO PARK CTO404-04","address":"222 Spadina Ave.","connectors":"?","powerKW":3.7},{"lat":43.644279,"lng":-79.391055,"name":"INDIGO PARK CTO019-01","address":"320 Front St W","connectors":"?","powerKW":3.7},{"lat":43.648654,"lng":-79.382233,"name":"INDIGO PARK CTO592-02","address":"109 Adelaide Street W","connectors":"?","powerKW":3.7},{"lat":43.654378,"lng":-79.384678,"name":"GreenP \u2013 LocationID 3008 \u2013 89 Elizabeth St","address":"91 Elizabeth Street","connectors":"?","powerKW":3.7},{"lat":43.648713,"lng":-79.382109,"name":"INDIGO PARK CTO592-03","address":"109 Adelaide Street","connectors":"?","powerKW":3.7},{"lat":43.648584,"lng":-79.382126,"name":"INDIGO PARK CTO592-04","address":"109 Aelaide Street West","connectors":"?","powerKW":3.7},{"lat":43.649365,"lng":-79.381926,"name":"First Canadian Place","address":"100 King St W","connectors":"?","powerKW":3.7},{"lat":43.6509595,"lng":-79.398128,"name":"Indigo Park Canada Inc","address":"222 Spadina Avenue","connectors":"?","powerKW":3.7},{"lat":43.65539932,"lng":-79.38639832,"name":"SWTCH Energy Inc.","address":"180 Dundas St W","connectors":"?","powerKW":3.7},{"lat":43.644355,"lng":-79.387013,"name":"Metro Toronto Convention Centre - North Garage","address":"255 Front St W","connectors":"?","powerKW":3.7},{"lat":43.644719,"lng":-79.385781,"name":"FLO - Cadillac Fairview - Simcoe Place- P2 Level","address":"200 Front st W","connectors":"?","powerKW":3.7},{"lat":43.6555650044152,"lng":-79.3863219502559,"name":"Crown Property Management Inc","address":"180 Dundas St W","connectors":"?","powerKW":3.7},{"lat":43.6460987,"lng":-79.3830125,"name":"Toronto Parking Authority","address":"40 York St","connectors":"?","powerKW":3.7},{"lat":43.65626,"lng":-79.388222,"name":"ImPark","address":"525 University Ave","connectors":"?","powerKW":3.7},{"lat":43.643551,"lng":-79.389613,"name":"315 FRONT ST. W CHARGER 1","address":"315 Front St W","connectors":"?","powerKW":3.7},{"lat":43.647089,"lng":-79.381974,"name":"FLO - Cadillac Fairview - TD Center","address":"66 Wellington St W","connectors":"?","powerKW":3.7},{"lat":43.643497,"lng":-79.389602,"name":"315 FRONT ST. W CHARGER 2","address":"315 Front St W","connectors":"?","powerKW":3.7},{"lat":43.64693,"lng":-79.3819,"name":"Toronto-Dominion Centre - Tesla Destination","address":"66 Wellington St W","connectors":"?","powerKW":3.7},{"lat":43.64693,"lng":-79.3819,"name":"Toronto-Dominion Centre","address":"66 Wellington St W","connectors":20,"powerKW":16},{"lat":43.647755974,"lng":-79.3986218,"name":"YMCA of Greater Toronto","address":"501 Richmond Street West","connectors":"?","powerKW":3.7},{"lat":43.65435,"lng":-79.38297,"name":"Northam - Toronto Office","address":"483 Bay St.","connectors":"?","powerKW":3.7},{"lat":43.645327,"lng":-79.383173,"name":"GREENP CP52-006","address":"40 York Street","connectors":"?","powerKW":3.7},{"lat":43.645522,"lng":-79.382707,"name":"GREENP CP52-005","address":"40 York St","connectors":"?","powerKW":3.7},{"lat":43.647376,"lng":-79.380978,"name":"TD Centre","address":"66 Wellington St W","connectors":"?","powerKW":3},{"lat":43.649937,"lng":-79.380191,"name":"Toronto International Hotel and Tower","address":"325 Bay St","connectors":1,"powerKW":13},{"lat":43.64976824179951,"lng":-79.3801690392786,"name":"SWTCH - Scotia Plaza (40 King St. West)","address":"21 Adelaide Street West","connectors":17,"powerKW":50},{"lat":43.64694472,"lng":-79.39890653,"name":"505 Richmond St Garage","address":"505 Richmond St W","connectors":"?","powerKW":3.7},{"lat":43.655071,"lng":-79.383059,"name":"FLO - Cadillac Fairview - Toronto Eaton Centre","address":"220 Yonge St (525 Bay & Dundas Parkade P2)","connectors":"?","powerKW":3.7},{"lat":43.655071,"lng":-79.383059,"name":"FLO - Cadillac Fairview - Toronto Eaton Centre","address":"535 Bay Street","connectors":3,"powerKW":50},{"lat":43.6458314,"lng":-79.3819623,"name":"SWTCH Energy Inc.","address":"100 Front St W","connectors":"?","powerKW":3.7},{"lat":43.645275,"lng":-79.38256,"name":"ImPark - Citibank Building","address":"123 Front St W","connectors":"?","powerKW":50},{"lat":43.650028,"lng":-79.380083,"name":"Scotia Plaza","address":"21 Adelaide St W","connectors":12,"powerKW":16},{"lat":43.644872,"lng":-79.383021,"name":"Citigroup Place - Tesla Destination","address":"123 Front St W","connectors":"?","powerKW":3.7},{"lat":43.655596,"lng":-79.382963,"name":"CF Toronto Eaton Centre - Tesla Supercharger","address":"220 Yonge Street","connectors":"?","powerKW":50},{"lat":43.655596,"lng":-79.382963,"name":"Toronto, on - Bay Street Supercharger","address":"220 Yonge Street","connectors":16,"powerKW":72},{"lat":43.6505,"lng":-79.379524,"name":"BROOKFIELD BELL 1","address":"22 Adelaide St W","connectors":"?","powerKW":3.7},{"lat":43.6495874,"lng":-79.3795007,"name":"Swtch Energy","address":"40 King St W","connectors":"?","powerKW":3.7},{"lat":43.648184,"lng":-79.37971,"name":"199 BAY STALLS 13 & 14","address":"199 Bay St.","connectors":"?","powerKW":3.7},{"lat":43.648179,"lng":-79.379686,"name":"199 BAY 199 BAY - 8&9","address":"199 Bay St.","connectors":"?","powerKW":3.7},{"lat":43.648146,"lng":-79.379684,"name":"199 BAY STALLS 11 & 12","address":"199 Bay St.","connectors":"?","powerKW":3.7},{"lat":43.642646,"lng":-79.3934016,"name":"Swtch Energy","address":"397 Front St W","connectors":"?","powerKW":3.7},{"lat":43.643335,"lng":-79.395855,"name":"THE WELL P2 POST #13","address":"486 Front Street West","connectors":"?","powerKW":3.7},{"lat":43.646559,"lng":-79.38015,"name":"ROYALBANK PLAZA STATION 2","address":"200 Bay St.","connectors":"?","powerKW":3.7},{"lat":43.65642278225184,"lng":-79.38344639222628,"name":"SWTCH - Atrium (595-Bay-St)","address":"39 Edward Street","connectors":18,"powerKW":60},{"lat":43.646419,"lng":-79.380118,"name":"ROYALBANK PLAZA STATION 3","address":"200 Bay St.","connectors":"?","powerKW":3.7},{"lat":43.65698,"lng":-79.38423,"name":"Peak Power Inc","address":"655 Bay Street","connectors":"?","powerKW":3.7},{"lat":43.648123,"lng":-79.37902,"name":"199 BAY 199 BAY - 3&4","address":"199 Bay Street","connectors":"?","powerKW":3.7},{"lat":43.64345,"lng":-79.383264,"name":"QuardReal Property Group Inc","address":"18 York Street","connectors":"?","powerKW":3.7},{"lat":43.6501175,"lng":-79.3785717,"name":"Indigo Park Canada Inc","address":"1 Adelaide Street","connectors":"?","powerKW":3.7},{"lat":43.646302,"lng":-79.379753,"name":"Royal Bank Plaza","address":"200 Bay St","connectors":"?","powerKW":3.7},{"lat":43.65777,"lng":-79.38601,"name":"The Hospital for Sick Children","address":"170 Elizabeth St","connectors":"?","powerKW":3.7},{"lat":43.65650177,"lng":-79.38279724,"name":"SWTCH Energy Inc.","address":"595 Bay St","connectors":"?","powerKW":3.7},{"lat":43.65283861,"lng":-79.3790777,"name":"The Ports","address":"Yonge St","connectors":"?","powerKW":3.7},{"lat":43.643078,"lng":-79.3968,"name":"THE WELL STATION 6","address":"The Well","connectors":"?","powerKW":3.7},{"lat":43.642152,"lng":-79.394692,"name":"THE WELL STATION 5","address":"The Well","connectors":"?","powerKW":3.7},{"lat":43.6546513,"lng":-79.3999196,"name":"Toronto Parking Authority","address":"20 St Andrew St","connectors":"?","powerKW":3.7},{"lat":43.642669,"lng":-79.396144,"name":"THE WELL STATION 4","address":"The Well","connectors":"?","powerKW":3.7},{"lat":43.642866,"lng":-79.38318,"name":"BREMNER TOWER  120 BREMNER 2","address":"120 Bremner Boulevard","connectors":"?","powerKW":3.7},{"lat":43.643334,"lng":-79.382317,"name":"SFC 18 YORK 1","address":"18 York St","connectors":"?","powerKW":3.7},{"lat":43.643243,"lng":-79.382412,"name":"SFC 18 YORK 2","address":"18 York St","connectors":"?","powerKW":3.7},{"lat":43.642411,"lng":-79.396013,"name":"THE WELL 95 POST #8","address":"486 Front Street West","connectors":"?","powerKW":3.7},{"lat":43.647488,"lng":-79.378414,"name":"Brookfield Place","address":"181 Bay St","connectors":"?","powerKW":3.7},{"lat":43.642386,"lng":-79.395964,"name":"THE WELL P5 POST #7","address":"486 Front Street West","connectors":"?","powerKW":3.7},{"lat":43.648793,"lng":-79.378011,"name":"One King West Hotel & Residence","address":"1 King St W","connectors":2,"powerKW":16},{"lat":43.64305,"lng":-79.382562,"name":"SFC 18 YORK 3","address":"18 York St","connectors":"?","powerKW":3.7},{"lat":43.646215,"lng":-79.378967,"name":"181 Bay Street","address":"181 Bay Street","connectors":8,"powerKW":null},{"lat":43.658226,"lng":-79.385065,"name":"ImPark - Lucliff Place","address":"700 Bay St","connectors":"?","powerKW":50},{"lat":43.659,"lng":-79.389333,"name":"MaRS Discovery District - Tesla Destination","address":"661 University Ave","connectors":"?","powerKW":3.7},{"lat":43.659,"lng":-79.389333,"name":"Mars Discovery District","address":"661 University Ave","connectors":20,"powerKW":16},{"lat":43.645134,"lng":-79.400727,"name":"King Portland Centre - Tesla Destination","address":"620 King St W","connectors":"?","powerKW":3.7},{"lat":43.659265,"lng":-79.390105,"name":"ImPark - MaRS Centre","address":"661 University Ave","connectors":"?","powerKW":3.7},{"lat":43.651999,"lng":-79.377425,"name":"GREENP CP26-001-FC","address":"33 Queen Street East","connectors":"?","powerKW":50},{"lat":43.643454,"lng":-79.380735,"name":"MENKES 25 YORK 25 EV 2","address":"25 York St","connectors":"?","powerKW":3.7},{"lat":43.643418,"lng":-79.380744,"name":"MENKES 25 YORK 25 EV 1","address":"25 York St","connectors":"?","powerKW":3.7},{"lat":43.6475877,"lng":-79.3774118,"name":"Indigo Park Canada Inc","address":"33 Yonge Street","connectors":"?","powerKW":3.7},{"lat":43.659501,"lng":-79.38967,"name":"661 University Ave (MaRS Centre Toronto)","address":"661 University Ave","connectors":"?","powerKW":50},{"lat":43.643795,"lng":-79.399957,"name":"Freed Developments - 75 Portland St","address":"75 Portland St","connectors":"?","powerKW":3.7},{"lat":43.64301,"lng":-79.381043,"name":"Le Germain Hotel Maple Leaf Square","address":"75 Bremmer BLVD","connectors":4,"powerKW":16},{"lat":43.652319,"lng":-79.377175,"name":"GREENP CP26-003-FC","address":"33 Queen Street East","connectors":"?","powerKW":50},{"lat":43.6516524,"lng":-79.3769603,"name":"Swtch Energy","address":"20 Lombard St","connectors":"?","powerKW":3.7},{"lat":43.6560802,"lng":-79.3797419,"name":"GreenP - CP34 - 20 Dundas Sq.","address":"20 Dundas Square","connectors":"?","powerKW":3.7},{"lat":43.656586,"lng":-79.380222,"name":"Toronto Parking Authority - Yonge Dundas Square","address":"20 Dundas St E","connectors":"?","powerKW":3.7},{"lat":43.652658,"lng":-79.377049,"name":"GREENP CP26-004","address":"33 Queen Street East","connectors":"?","powerKW":3.7},{"lat":43.652726,"lng":-79.377075,"name":"GREENP CP26-005","address":"33 Queen Street East","connectors":"?","powerKW":3.7},{"lat":43.6423527,"lng":-79.3816559,"name":"Cadillac Fairview - 16 York","address":"16 York Street","connectors":"?","powerKW":3.7},{"lat":43.652445,"lng":-79.376958,"name":"GREENP CP26-002","address":"33 Queen Street East","connectors":"?","powerKW":3.7},{"lat":43.650615,"lng":-79.376542,"name":"36 Toronto Street Dream Garage - Tesla Destination","address":"36 Toronto St","connectors":"?","powerKW":3.7},{"lat":43.64125176976224,"lng":-79.38369959259033,"name":"Metro Centre - South Garage","address":"222 Bremner Blvd","connectors":"?","powerKW":3.7},{"lat":43.642446,"lng":-79.398828,"name":"PORTLANDCOMMONS PORTLANDCOM10","address":"530 Front St W","connectors":"?","powerKW":3.7},{"lat":43.648388,"lng":-79.37641,"name":"TSCC 2665 STATION 1","address":"88 Scott St","connectors":"?","powerKW":3.7},{"lat":43.659317,"lng":-79.384998,"name":"College Park Garage","address":"777 Bay St","connectors":8,"powerKW":17},{"lat":43.659317,"lng":-79.384998,"name":"College Park Garage - Tesla Destination","address":"777 Bay St","connectors":"?","powerKW":3.7},{"lat":43.64239,"lng":-79.398972,"name":"PORTLANDCOMMONS PORTLANDCOM28","address":"530 Front St W","connectors":"?","powerKW":3.7},{"lat":43.6440986,"lng":-79.4011708,"name":"Autzu Inc","address":"621 King St W","connectors":"?","powerKW":3.7},{"lat":43.6587158,"lng":-79.3830855,"name":"Chelsea Hotel","address":"33 Gerrard St W","connectors":1,"powerKW":13},{"lat":43.6587158,"lng":-79.38308549999999,"name":"Delta Chelsea","address":"33 Gerrard Street West ","connectors":1,"powerKW":17.3},{"lat":43.642267,"lng":-79.39889,"name":"PORTLANDCOMMONS PORTLANDCOM21","address":"530 Front St W","connectors":"?","powerKW":3.7},{"lat":43.642047,"lng":-79.398585,"name":"PORTLANDCOMMONS PORTLANDCOM13","address":"530 Front St W","connectors":"?","powerKW":3.7},{"lat":43.642161,"lng":-79.398785,"name":"PORTLANDCOMMONS PORTLANDCOM8","address":"530 Front St W","connectors":"?","powerKW":3.7},{"lat":43.70522,"lng":-79.787435,"name":"Brampton Mitsubishi","address":"47 Bovaird Dr W","connectors":"?","powerKW":3.7},{"lat":43.700939,"lng":-79.790455,"name":"COGIRMANETT EV6PNL20EV10,12","address":"100 Manett Crescent","connectors":"?","powerKW":3.7},{"lat":43.7050862,"lng":-79.7884509,"name":"Frost GM - Inside","address":"150 Bovaird Drive West","connectors":"?","powerKW":3.7},{"lat":43.704824,"lng":-79.789007,"name":"Frost GM","address":"150 Bovaird Dr","connectors":"?","powerKW":3.7},{"lat":43.70265843,"lng":-79.79404867,"name":"Attrell Hyundai","address":"100 Canam Cres","connectors":"?","powerKW":50},{"lat":43.700731,"lng":-79.795373,"name":"Planet Ford","address":"111 Canam Crescent","connectors":"?","powerKW":3.7},{"lat":43.700351,"lng":-79.796798,"name":"MAZDAOFBRAMPTON PARKING","address":"15 Van Kirk Dr","connectors":"?","powerKW":3.7},{"lat":43.6997554,"lng":-79.7985652,"name":"Nissan Canada - Brampton - DC","address":"60 Steelwell Road","connectors":"?","powerKW":50},{"lat":43.702070329,"lng":-79.799284129,"name":"Aecon Construction Group Inc","address":"45 Van Kirk Dr","connectors":"?","powerKW":3.7},{"lat":43.7018548,"lng":-79.759102,"name":"SWTCH Energy Inc.","address":"205 Vodden St E","connectors":"?","powerKW":3.7},{"lat":43.7015581,"lng":-79.8027035,"name":"RCCG Anointed Chapel - Brampton","address":"1 Lowry Dr","connectors":"?","powerKW":50},{"lat":43.710278,"lng":-79.801351,"name":"Heart Lake Community Recycling Centre","address":"420 Railside Drive","connectors":"?","powerKW":3.7},{"lat":43.6858333,"lng":-79.763295,"name":"City of Brampton - Nelson Garage Parking","address":"2 Diplock Ln","connectors":"?","powerKW":3.7},{"lat":43.6910172,"lng":-79.8026505,"name":"175-235 Fletcher's Creek Blvd","address":"175-235 Fletcher's Creek Blvd","connectors":"?","powerKW":3.7},{"lat":43.68902638,"lng":-79.7584099,"name":"YMCA of Greater Toronto","address":"20 Union Street","connectors":"?","powerKW":3.7},{"lat":43.688191,"lng":-79.759219,"name":"Brampton YMCA","address":"20 Union St","connectors":"?","powerKW":3.7},{"lat":43.68718,"lng":-79.760307,"name":"Rose Theatre (Brampton MS)","address":"1 Theatre Lane","connectors":"?","powerKW":3.7},{"lat":43.6859301,"lng":-79.7613695,"name":"Nelson Square Garage","address":"2 Diplock Lane","connectors":"?","powerKW":3.7},{"lat":43.684467,"lng":-79.760622,"name":"BRAMPTON STATION 1","address":"41 George St S","connectors":"?","powerKW":3.7},{"lat":43.684498,"lng":-79.760404,"name":"City of Brampton - West Tower City Hall","address":"41 George St S","connectors":"?","powerKW":3.7},{"lat":43.6845867,"lng":-79.7600487,"name":"Brampton City Hall","address":"Brampton City Hall","connectors":"?","powerKW":3.7},{"lat":43.68498,"lng":-79.759302,"name":"City of Brampton - City Hall","address":"2 Wellington St W","connectors":"?","powerKW":3.7},{"lat":43.69042,"lng":-79.751676,"name":"WOHS PMC OSLER 7","address":"20 Lynch St","connectors":"?","powerKW":3.7},{"lat":43.690274,"lng":-79.751729,"name":"WOHS PMC OSLER 1","address":"20 Lynch St","connectors":"?","powerKW":3.7},{"lat":43.713071,"lng":-79.805575,"name":"Former Alectra Facility","address":"175 Sandalwood Pkwy W","connectors":"?","powerKW":3.7},{"lat":43.690668,"lng":-79.751022,"name":"William Osler Health System","address":"20 Lynch St","connectors":"?","powerKW":3.7},{"lat":43.714545,"lng":-79.80671,"name":"City of Brampton - Sandalwood Transit","address":"130 Sandalwood W","connectors":"?","powerKW":3.7},{"lat":43.716257,"lng":-79.808957,"name":"BRAMPTON PL 532F6","address":"120 Sandalwood Parkway West","connectors":"?","powerKW":50},{"lat":43.716287,"lng":-79.808954,"name":"BRAMPTON PL 533B6","address":"120 Sandalwood Parkway West","connectors":"?","powerKW":50},{"lat":43.716269,"lng":-79.809673,"name":"Sandalwood Transit","address":"130 Sandalwood Parkway W","connectors":"?","powerKW":3.7},{"lat":43.724483,"lng":-79.8003,"name":"LOAFER'S LOAFER'S 1","address":"30 Loafers Lake Ln","connectors":"?","powerKW":3.7},{"lat":43.6724971,"lng":-79.7693011,"name":"Flower City Community Campus","address":"8850 McLaughlin Rd S","connectors":"?","powerKW":3.7},{"lat":43.728049,"lng":-79.7646954,"name":"Swtch Energy","address":"80 Great Lakes Dr","connectors":"?","powerKW":3.7},{"lat":43.729183,"lng":-79.76287,"name":"Trinity Common Mall - Tesla Supercharger","address":"210 Great Lakes Dr","connectors":"?","powerKW":50},{"lat":43.731,"lng":-79.76784,"name":"Ontario Charging Network LP-Home Depot","address":"60 Great Lakes Dr","connectors":"?","powerKW":50},{"lat":43.69754,"lng":-79.82541,"name":"BRAMPTON CASSIE 1","address":"1050 Sandalwood Pkwy W","connectors":"?","powerKW":3.7},{"lat":43.7304317,"lng":-79.7615416,"name":"Trinity Commons Square","address":"10-210 Great Lakes Dr","connectors":"?","powerKW":50},{"lat":43.730705514572264,"lng":-79.76018012502641,"name":"Shell Recharge - C21743 Brampton EV","address":"5 Great Lakes Drive","connectors":2,"powerKW":90},{"lat":43.7309074853011,"lng":-79.7597898196876,"name":"Shell Canada","address":"5 Great Lakes Dr","connectors":"?","powerKW":50},{"lat":43.66508239849188,"lng":-79.7692727824751,"name":"79WTC","address":"79 White Tail Cres","connectors":1,"powerKW":55},{"lat":43.665153,"lng":-79.755763,"name":"City of Brampton - Flower City Community Centre","address":"8850 McLaughlin Rd","connectors":"?","powerKW":3.7},{"lat":43.697207,"lng":-79.725725,"name":"CBO PDSB ORENDA RD","address":"225 Orenda Rd","connectors":"?","powerKW":3.7},{"lat":43.710733,"lng":-79.7272261,"name":"Ritz Tower 10 Lisa -2 (Public)","address":"10 Lisa S","connectors":"?","powerKW":3.7},{"lat":43.708782,"lng":-79.725913,"name":"Elexicon Group Inc","address":"188 Clark Blvd","connectors":"?","powerKW":3.7},{"lat":43.705877,"lng":-79.724262,"name":"City of Brampton - Civic Centre","address":"185 Clark Blvd","connectors":"?","powerKW":3.7},{"lat":43.681965,"lng":-79.727518,"name":"ALECTRA EV-7","address":"200 Kennedy Road South","connectors":"?","powerKW":50},{"lat":43.70111389,"lng":-79.72179942,"name":"West Dr","address":"46 West Dr","connectors":"?","powerKW":3.7},{"lat":43.680125,"lng":-79.728588,"name":"Alectra Utilities Corporation","address":"174 Kennedy Rd South","connectors":"?","powerKW":3.7},{"lat":43.714566,"lng":-79.724928,"name":"Bramalea City Centre","address":"25 Peel Centre DR","connectors":1,"powerKW":13},{"lat":43.714566,"lng":-79.724928,"name":"Bramalea City Centre - Tesla Destination","address":"25 Peel Centre Dr","connectors":"?","powerKW":3.7},{"lat":43.679958,"lng":-79.727733,"name":"ALECTRA EV-6","address":"200 Kennedy Rd S","connectors":"?","powerKW":50},{"lat":43.680017,"lng":-79.727538,"name":"ALECTRA EV-9","address":"200 Kennedy Rd S","connectors":"?","powerKW":50},{"lat":43.6913084069524,"lng":-79.721790001729,"name":"Electric Vehicle Network Incorporated","address":"130 Glidden Road","connectors":"?","powerKW":3.7},{"lat":43.69110107,"lng":-79.72180176,"name":"SWTCH Energy Inc.","address":"130 Glidden Rd","connectors":"?","powerKW":3.7},{"lat":43.6730611218643,"lng":-79.8263875153221,"name":"Daniels Choice Mount Pleasant Corporation","address":"40 Lagerfeld Drive","connectors":"?","powerKW":3.7},{"lat":43.680853,"lng":-79.726662,"name":"ALECTRA EV-5","address":"174 Kennedy Rd S","connectors":"?","powerKW":3.7},{"lat":43.743577,"lng":-79.770336,"name":"Save Max Sports Centre (Brampton Soccer Centre)","address":"1495 Sandalwood Pkwy E","connectors":"?","powerKW":3.7},{"lat":43.74356,"lng":-79.768792,"name":"City of Brampton - Soccer Centre Recreation Facility","address":"1495 Sandalwood Pkwy E","connectors":"?","powerKW":3.7},{"lat":43.713173,"lng":-79.721406,"name":"Bramalea City Centre","address":"25 Peel Centre Dr","connectors":"?","powerKW":3},{"lat":43.719035,"lng":-79.722865,"name":"10 Peel Centre Drive - Suite A","address":"10 Peel Centre Dr","connectors":"?","powerKW":3.7},{"lat":43.7190497354997,"lng":-79.7228314891185,"name":"Region of Peel","address":"10 Peel Centre Drive","connectors":7,"powerKW":7.2},{"lat":43.704426,"lng":-79.716674,"name":"ROGERS COMM STATION 1","address":"8200 Dixie Rd","connectors":"?","powerKW":3.7},{"lat":43.70417,"lng":-79.716292,"name":"ROGERS COMM STATION 3","address":"8200 Dixie Rd","connectors":"?","powerKW":3.7},{"lat":43.66356820372778,"lng":-79.73522370651061,"name":"Park + Charge - No Frills","address":"85 Steeles Avenue West","connectors":4,"powerKW":50},{"lat":43.66429,"lng":-79.73392,"name":"Real Canadian Superstore - Brampton","address":"85 Steeles Ave W","connectors":"?","powerKW":50},{"lat":43.6845667,"lng":-79.715766,"name":"Swtch Energy","address":"16 Bram Ct","connectors":"?","powerKW":3.7},{"lat":43.6817265,"lng":-79.71362925,"name":"90 Biscayne Crescent","address":"90 Biscayne Cres","connectors":"?","powerKW":3.7},{"lat":43.746938,"lng":-79.743834,"name":"William Osler Health System","address":"2100 Bovaird Dr E","connectors":"?","powerKW":3.7},{"lat":43.7476997375488,"lng":-79.7456436157226,"name":"The Regional Municipality of Peel","address":"995 Peter Robertson Boulevard","connectors":"?","powerKW":3.7},{"lat":43.748108,"lng":-79.742112,"name":"WOHS BCH OSLER 5","address":"2100 Bovaird Dr E","connectors":"?","powerKW":3.7},{"lat":43.74905,"lng":-79.74325,"name":"CHINGUACOUSY WC CW1","address":"995 Peter Robertson Blvd","connectors":"?","powerKW":3.7},{"lat":43.652797,"lng":-79.7381452,"name":"City of Brampton - South Fletcher's","address":"500 Ray Lawson Blvd","connectors":"?","powerKW":3.7},{"lat":43.683171,"lng":-79.70582,"name":"Brampton","address":"60 Steelwell Road","connectors":"?","powerKW":3.7},{"lat":43.755861,"lng":-79.793469,"name":"JLR BRAMPTON SHOP 1","address":"50 Coachworks Cres","connectors":"?","powerKW":3.7},{"lat":43.6603723822404,"lng":-79.7222158323902,"name":"SWTCH Energy","address":"201 County Court Blvd","connectors":"?","powerKW":3.7},{"lat":43.651732,"lng":-79.736017,"name":"Susan Fennell Sportsplex (South Fletchers Sports Complex)","address":"500 Ray Lawson Blvd","connectors":"?","powerKW":3.7},{"lat":43.757448,"lng":-79.793746,"name":"JLR BRAMPTON SERVICE DRIVE 1","address":"50 Coachworks Cres","connectors":"?","powerKW":3.7},{"lat":43.757641,"lng":-79.792169,"name":"PERFORMANCE HON MAYFIELD S1","address":"30 Ace Dr","connectors":"?","powerKW":3.7},{"lat":43.743768,"lng":-79.833648,"name":"Margaret Dunn Library - Smart DC","address":"20 Snelcrest Dr","connectors":"?","powerKW":50},{"lat":43.7578203,"lng":-79.7920724,"name":"PHM STATION","address":"30 Ace Dr","connectors":"?","powerKW":3},{"lat":43.7438859,"lng":-79.8336686,"name":"CALEDON","address":"6-8 Snelcrest Dr","connectors":"?","powerKW":40},{"lat":43.6865583,"lng":-79.7009812,"name":"Ampower Electric","address":"246 Advance Blvd","connectors":"?","powerKW":50},{"lat":43.6888,"lng":-79.70016,"name":"The Regional Municipality of Peel","address":"2 Copper Road","connectors":"?","powerKW":3.7},{"lat":43.758114,"lng":-79.794077,"name":"STATION CPE100","address":"15 Coachworks Cres","connectors":"?","powerKW":50},{"lat":43.6874544,"lng":-79.6998976,"name":"Namword 2","address":"246 ADVANCE BOULEVARD","connectors":"?","powerKW":50},{"lat":43.758459,"lng":-79.794288,"name":"STATION CT4000","address":"15 Coachworks Cres","connectors":"?","powerKW":3.7},{"lat":43.758631,"lng":-79.762917,"name":"City of Brampton - Springdale Library","address":"10705 Bramalea Rd","connectors":"?","powerKW":3.7},{"lat":43.758284,"lng":-79.7605,"name":"Brampton - Springdale Library - Komagata Maru Park","address":"10705 Bramalea Rd","connectors":"?","powerKW":3.7},{"lat":43.759236,"lng":-79.794471,"name":"Mercedes-Benz - Brampton","address":"10 Coachworks Crescent","connectors":"?","powerKW":3.7},{"lat":43.7339605,"lng":-79.7062824,"name":"Swtch Energy","address":"8875 Torbram Rd","connectors":"?","powerKW":3.7},{"lat":43.72775333,"lng":-79.8604212,"name":"The Atmospheric Fund","address":"1941 Eglinton Ave E","connectors":"?","powerKW":50},{"lat":43.735913,"lng":-79.705695,"name":"POLICARO ACURA STATION 3","address":"2250 Queen Street East","connectors":"?","powerKW":3.7},{"lat":43.75181959,"lng":-79.72411974,"name":"2300 North Park Dr","address":"2300 N Park Dr","connectors":"?","powerKW":3.7},{"lat":43.7336998,"lng":-79.70140076,"name":"SWTCH Energy","address":"8875 Torbram Rd","connectors":"?","powerKW":3.7},{"lat":43.756917,"lng":-79.826766,"name":"TOWN OF CALEDON STATION 1","address":"225 Dougall Ave","connectors":"?","powerKW":3.7},{"lat":43.7486179,"lng":-79.7138606,"name":"City of Brampton - Fire A&M Building","address":"425 Chrysler Dr","connectors":"?","powerKW":3.7},{"lat":43.740935,"lng":-79.703503,"name":"125 Chrysler Drive","address":"125 Chrysler Drive","connectors":"?","powerKW":3.7},{"lat":43.73847,"lng":-79.700201,"name":"Gateway Chevrolet - DC","address":"2 Gateway Blvd","connectors":"?","powerKW":50},{"lat":43.738731,"lng":-79.700098,"name":"Gateway Chevrolet","address":"2 Gateway Blvd","connectors":"?","powerKW":3.7},{"lat":43.765292,"lng":-79.745339,"name":"Sandalwood Heights Secondary School","address":"2671 Sandalwood Pkwy E","connectors":"?","powerKW":3.7},{"lat":43.75094,"lng":-79.711037,"name":"Williams Parkway Operations Centre","address":"1975 Williams Parkway","connectors":"?","powerKW":3.7},{"lat":43.75095156107761,"lng":-79.71094367492597,"name":"City of Brampton - Operations Centre","address":"1995 Williams Pkwy","connectors":8,"powerKW":3.7},{"lat":43.741408,"lng":-79.698877,"name":"Tesla/NACS Supercharger - Brampton, Queen St E","address":"2850 Queen Street East","connectors":12,"powerKW":250},{"lat":43.627718,"lng":-79.775018,"name":"HUSKY - 7965 Mississauga Rd - 2","address":"7965 Mississauga Rd","connectors":"?","powerKW":3.7},{"lat":43.6474829,"lng":-79.7096098,"name":"7120 Hurontario (2022)","address":"7120 Hurontario","connectors":"?","powerKW":3.7},{"lat":43.647357,"lng":-79.709644,"name":"FLO - 7120 Hurontario (2019)","address":"7120 Hurontario Street","connectors":11,"powerKW":50},{"lat":43.774134,"lng":-79.783515,"name":"Alectra Energy Services - Mayfield Secondary School","address":"5000 Mayfield Rd","connectors":"?","powerKW":3.7},{"lat":43.672477,"lng":-79.68311,"name":"Intralec Electrical Products","address":"1200 Cardiff Blvd","connectors":"?","powerKW":3.7},{"lat":43.731283,"lng":-79.684238,"name":"BGO AC 145 WALKER DRIV","address":"115-145 Walker Dr","connectors":"?","powerKW":3.7},{"lat":43.7454685,"lng":-79.6950402,"name":"OpenRoad Honda - South parking lot","address":"4 Maritime Ontario Blvd","connectors":"?","powerKW":3.7},{"lat":43.73234,"lng":-79.682835,"name":"BGO AC SK8590AIRPORT1","address":"8590 Airport Rd","connectors":"?","powerKW":3.7},{"lat":43.639797,"lng":-79.712805,"name":"COURTYARD STATION2","address":"290 Derry Rd W","connectors":"?","powerKW":3.7},{"lat":43.639538,"lng":-79.712692,"name":"COURTYARD","address":"290 Derry Rd W","connectors":"?","powerKW":3},{"lat":43.739445,"lng":-79.687368,"name":"C.I.M. Solutions Inc","address":"70 Delta Park Blvd Unit 3","connectors":"?","powerKW":3.7},{"lat":43.67684,"lng":-79.67728,"name":"Ontario Khalsa Darbar","address":"7080 Dixie Rd","connectors":"?","powerKW":50},{"lat":43.64595,"lng":-79.700785,"name":"BET Services Inc - Tesla Destination","address":"6891 Edwards Boulevard","connectors":"?","powerKW":3.7},{"lat":43.694252,"lng":-79.670191,"name":"BGO M 7315 DAVID H 2","address":"7381 Bramalea Rd","connectors":"?","powerKW":3.7},{"lat":43.733597,"lng":-79.67946,"name":"Brampton Shunt Trucks","address":"55 Devon Rd","connectors":"?","powerKW":50},{"lat":43.65294,"lng":-79.689993,"name":"Puratos Canada","address":"520 Slate Drive","connectors":"?","powerKW":3.7},{"lat":43.722857,"lng":-79.673007,"name":"Hilton Garden Inn Toronto/Brampton - Tesla Destination","address":"2648 Steeles Ave","connectors":"?","powerKW":3.7},{"lat":43.722857,"lng":-79.673007,"name":"Hilton Garden Inn Toronto/Brampton","address":"2648 Steeles Ave","connectors":8,"powerKW":16},{"lat":43.695029,"lng":-79.667693,"name":"BGO M 7315 DAVID H","address":"7315 David Hunting Dr","connectors":"?","powerKW":3.7},{"lat":43.618377,"lng":-79.768501,"name":"LOBLAW STATION 2 VP","address":"1 Presidents Choice Cir","connectors":"?","powerKW":3.7},{"lat":43.618329,"lng":-79.768621,"name":"LOBLAW STATION 1 VP","address":"1 Presidents Choice Cir","connectors":"?","powerKW":3.7},{"lat":43.61808,"lng":-79.769059,"name":"LOBLAW STATION 4 VP","address":"1 Presidents Choice Cir","connectors":"?","powerKW":3.7},{"lat":43.61773,"lng":-79.768858,"name":"LOBLAW STATION 11 E","address":"1 Presidents Choice Cir","connectors":"?","powerKW":3.7},{"lat":43.61702506929734,"lng":-79.78375718252562,"name":"Survalent Technology Corporation","address":"7965 Heritage Rd","connectors":"?","powerKW":3.7},{"lat":43.70335802,"lng":-79.66509479,"name":"Rush Truck Centres 2","address":"7450 Torbram Rd","connectors":"?","powerKW":3.7},{"lat":43.62325,"lng":-79.735634,"name":"CVCA STATION 2","address":"1255 Old Derry Rd","connectors":"?","powerKW":3.7},{"lat":43.62322,"lng":-79.73557,"name":"CVCA STATION 1","address":"1255 Old Derry Rd","connectors":"?","powerKW":3.7},{"lat":43.616726,"lng":-79.770972,"name":"LOBLAW STATION 2 D","address":"1 PRESIDENTS CHOICE CIRCLE","connectors":"?","powerKW":3.7},{"lat":43.616508,"lng":-79.770876,"name":"LOBLAW STATION 1 D","address":"1 President's Choice Circle","connectors":"?","powerKW":3.7},{"lat":43.6381,"lng":-79.6999,"name":"SWTCH Energy Inc.","address":"6775 Maritz Dr","connectors":"?","powerKW":3.7},{"lat":43.755295,"lng":-79.690918,"name":"FRANKENSOLAR FRANKENSOLAR","address":"165 Sun Pac Blvd","connectors":"?","powerKW":3.7},{"lat":43.75175,"lng":-79.68535,"name":"Hyatt Place Toronto/Brampton","address":"3455 Queen Street East","connectors":"?","powerKW":3.7},{"lat":43.722123,"lng":-79.663957,"name":"BGO - MTC 10 DR. STATION","address":"10 Driver Rd","connectors":"?","powerKW":3.7},{"lat":43.741974,"lng":-79.6747677,"name":"ChargeLab - Goreway Dr","address":"8550 Goreway Dr","connectors":"?","powerKW":3.7},{"lat":43.647662,"lng":-79.682469,"name":"Super 8 Hotel (4) 6625 Kennedy Rd","address":"6625 Kennedy Rd","connectors":"?","powerKW":3.7},{"lat":43.721824,"lng":-79.661712,"name":"BGO - MTC 70 DR. STATION","address":"70 driver rd","connectors":"?","powerKW":3.7},{"lat":43.613104,"lng":-79.753736,"name":"Swtch Energy","address":"1950 Meadowvale Blvd","connectors":"?","powerKW":3.7},{"lat":43.637139,"lng":-79.691526,"name":"Triovest","address":"80 Courtneypark Dr E","connectors":"?","powerKW":50},{"lat":43.6245460408633,"lng":-79.7114032635265,"name":"Shell Canada","address":"745 Courtneypark Dr W","connectors":"?","powerKW":50},{"lat":43.62446381883646,"lng":-79.71151160494037,"name":"Shell Recharge - C21842 Courtneypark","address":"745 Courtneypark Drive West","connectors":2,"powerKW":100},{"lat":43.63524,"lng":-79.6925982,"name":"SWTCH Energy","address":"1 Prologis Blvd","connectors":"?","powerKW":3.7},{"lat":43.614242165258,"lng":-79.7388158017502,"name":"QuardReal Property Group Inc","address":"6901 Creditview Road","connectors":"?","powerKW":3.7},{"lat":43.6327962197145,"lng":-79.6954501729142,"name":"QuardReal Property Group Inc","address":"150 Courtneypark Drive","connectors":"?","powerKW":3.7},{"lat":43.611351,"lng":-79.752157,"name":"Swtch Energy","address":"7125 Mississauga Rd","connectors":"?","powerKW":3.7},{"lat":43.611656,"lng":-79.748015,"name":"QuardReal Property Group Inc","address":"6985 Financial Drive","connectors":"?","powerKW":3.7},{"lat":43.610849,"lng":-79.752342,"name":"QUADREAL CA 7125 SAUGA 1","address":"7125 Mississauga Rd","connectors":"?","powerKW":3.7},{"lat":43.6344901,"lng":-79.6918341,"name":"8 Prologis Blvd","address":"8 Prologis Blvd","connectors":"?","powerKW":3.7},{"lat":43.788615512452935,"lng":-79.54684650908898,"name":"ChargePoint - PETRO-CANADA 00959","address":"3733 Highway 7 West","connectors":4,"powerKW":200},{"lat":43.7941,"lng":-79.5452,"name":"SWTCH Energy Inc.","address":"15 Jevlan Dr","connectors":"?","powerKW":3.7},{"lat":43.78540039,"lng":-79.54440308,"name":"SWTCH Energy Inc.","address":"31 Colossus Dr","connectors":"?","powerKW":3.7},{"lat":43.7894781,"lng":-79.549388,"name":"PINEVIEW HYUNDA","address":"3790 York Regional Rd 7","connectors":"?","powerKW":3},{"lat":43.789478,"lng":-79.549388,"name":"PINEVIEW HYUNDA GATEWAY1","address":"3790 York Regional Rd 7","connectors":"?","powerKW":3.7},{"lat":43.78603,"lng":-79.532061,"name":"Toronto and Region Conservation - Head Office","address":"101 Exchange Ave","connectors":"?","powerKW":3.7},{"lat":43.787445,"lng":-79.53045,"name":"IKEA 372 VAUGHN CX2","address":"200 Interchange Way","connectors":"?","powerKW":3.7},{"lat":43.78719,"lng":-79.530441,"name":"IKEA 372 VAUGHN CX4","address":"200 Interchange Way","connectors":"?","powerKW":3.7},{"lat":43.7827886,"lng":-79.5454457,"name":"Tim Horton's","address":"7501 Weston Rd","connectors":"?","powerKW":50},{"lat":43.790349,"lng":-79.55176,"name":"FLO - Canadian Tire - Woodbridge","address":"3850 Highway 7","connectors":"?","powerKW":50},{"lat":43.794451,"lng":-79.529813,"name":"SC_100 NPP SC 100 NPP EV 5","address":"100 New Park Pl","connectors":"?","powerKW":3.7},{"lat":43.784923,"lng":-79.549719,"name":"GM - Roy Foss GMC Woodbridge","address":"2 Auto Park Cir","connectors":"?","powerKW":50},{"lat":43.7951947304735,"lng":-79.5289926019999,"name":"SmartCentres Management Services Inc","address":"100 New Park Place","connectors":"?","powerKW":3.7},{"lat":43.796572,"lng":-79.529364,"name":"SC_100 NPP EV#16","address":"898 Portage Parkway","connectors":"?","powerKW":3.7},{"lat":43.79583926,"lng":-79.5282681,"name":"YMCA of Greater Toronto","address":"200 Apple Mill Road","connectors":"?","powerKW":3.7},{"lat":43.799939,"lng":-79.534792,"name":"GUILLEVIN ON SOUTH SIDE","address":"300 Edgeley Blvd","connectors":"?","powerKW":3.7},{"lat":43.79738,"lng":-79.529144,"name":"SC_100 NPP EV#1","address":"898 Portage Pkwy","connectors":"?","powerKW":3.7},{"lat":43.797569,"lng":-79.529141,"name":"SC_100 NPP EV#3","address":"898 Portage Pkwy","connectors":"?","powerKW":3.7},{"lat":43.788259,"lng":-79.556042,"name":"Fortinos - Tesla Supercharger","address":"3940 Highway 7","connectors":"?","powerKW":50},{"lat":43.797407,"lng":-79.527234,"name":"SC_100 NPP 99-100","address":"185 Millway Ave","connectors":"?","powerKW":3.7},{"lat":43.797596,"lng":-79.527257,"name":"SC_100 NPP 97-98","address":"185 Millway Ave","connectors":"?","powerKW":3.7},{"lat":43.7977224549461,"lng":-79.5273305784166,"name":"SmartCentres Management Services Inc","address":"185 Millway Avenue","connectors":"?","powerKW":3.7},{"lat":43.802639,"lng":-79.525303,"name":"8083 jane st","address":"8083 jane st","connectors":"?","powerKW":3.7},{"lat":43.797271,"lng":-79.513225,"name":"YR-EV YR-FLT-EV-1","address":"130 McCleary Ct","connectors":"?","powerKW":3.7},{"lat":43.798077,"lng":-79.51277,"name":"YR-EV FLT EV 02","address":"90 Bales Drive East","connectors":"?","powerKW":3.7},{"lat":43.777594,"lng":-79.5653,"name":"Vaughan Electrical Supply","address":"640 Rowntree Dairy Rd","connectors":"?","powerKW":3.7},{"lat":43.773317,"lng":-79.515791,"name":"TRCA VBC EVSE 1","address":"Village at Black Creek 1000 Murray Ross Parkw","connectors":"?","powerKW":3.7},{"lat":43.800627,"lng":-79.570631,"name":"\u00c9cole secondaire fran\u00e7aise catholique de l'Ascension","address":"200 Aberdeen Avenue","connectors":"?","powerKW":3.7},{"lat":43.7656189,"lng":-79.54414,"name":"R&S Auto","address":"420 Ormont Drive","connectors":"?","powerKW":3.7},{"lat":43.77882,"lng":-79.50901,"name":"PLAN GROUP INC. STATION 8","address":"2720 Steeles Ave","connectors":"?","powerKW":3.7},{"lat":43.8148697,"lng":-79.5328572,"name":"Swtch Energy","address":"100 Courtland Ave","connectors":"?","powerKW":3.7},{"lat":43.770962,"lng":-79.513384,"name":"TRCA HO LEVEL 2-1","address":"5 Shoreham Drive","connectors":"?","powerKW":3.7},{"lat":43.7637586,"lng":-79.55209,"name":"Swtch Energy","address":"1295 Ormount Dr","connectors":"?","powerKW":3.7},{"lat":43.8191278,"lng":-79.5429571999999,"name":"ChargeLab - Four Valley Dr","address":"199 Four Valley Dr","connectors":"?","powerKW":3.7},{"lat":43.7727872,"lng":-79.507199,"name":"Arboretum Lane Parking Garage","address":"4700 Keele Street","connectors":"?","powerKW":3.7},{"lat":43.8191289,"lng":-79.54514677,"name":"199 Four Valley LP","address":"199 Four Valley Dr","connectors":"?","powerKW":3.7},{"lat":43.761203,"lng":-79.528229,"name":"HTS_ONTARIO HTS_NORFINCHEV1","address":"115 Norfinch Dr","connectors":"?","powerKW":3.7},{"lat":43.772862,"lng":-79.503475,"name":"York University - Vanier Lot","address":"4700 Keele St","connectors":"?","powerKW":3.7},{"lat":43.774903,"lng":-79.5015135,"name":"York Lanes Parking Garage","address":"4700 Keele Street","connectors":"?","powerKW":3.7},{"lat":43.7656183,"lng":-79.5114468,"name":"GreenP - LocationID 7106 - 320 Driftwood Ave","address":"320 Driftwood Ave","connectors":"?","powerKW":3.7},{"lat":43.822648,"lng":-79.537251,"name":"Alectra Energy Services Inc","address":"151 Bass Pro Mills Drive","connectors":"?","powerKW":3.7},{"lat":43.767496,"lng":-79.573285,"name":"SESCO VAUGHAN 2","address":"161 Vinyl Ct","connectors":"?","powerKW":3.7},{"lat":43.7702873,"lng":-79.5024811,"name":"Atkinson Visitors lot","address":"4700 Keele St","connectors":"?","powerKW":3.7},{"lat":43.7782876,"lng":-79.4961989,"name":"Kinsmen lot","address":"4700 Keele St","connectors":"?","powerKW":3.7},{"lat":43.7833285,"lng":-79.494028,"name":"Swtch Energy","address":"7077 Keele St","connectors":"?","powerKW":3.7},{"lat":43.824573,"lng":-79.534091,"name":"Vaughan Mills Shopping Center - South Parking","address":"1 Bass Pro Mills Dr","connectors":"?","powerKW":3.7},{"lat":43.8246096,"lng":-79.5341073,"name":"SMART PARKING","address":"1 Bass Pro Mills Dr","connectors":"?","powerKW":3},{"lat":43.7563034,"lng":-79.52721684,"name":"Epcor","address":"30 Norfinch Dr","connectors":"?","powerKW":3.7},{"lat":43.7724893,"lng":-79.4977943,"name":"Student Services Parking Garage","address":"4700 Keele Street","connectors":"?","powerKW":3.7},{"lat":43.755044,"lng":-79.545558,"name":"City of Toronto","address":"50 Toryork Drive","connectors":"?","powerKW":3.7},{"lat":43.7545,"lng":-79.548785,"name":"City of Toronto","address":"61 Toryork Dr","connectors":"?","powerKW":3.7},{"lat":43.82569,"lng":-79.53229,"name":"The Regional Municipality of York","address":"9060 Jane Street","connectors":"?","powerKW":3.7},{"lat":43.826412,"lng":-79.53285,"name":"YR CS EVC 23","address":"9060 Jane St","connectors":"?","powerKW":3.7},{"lat":43.82646,"lng":-79.533005,"name":"YR CS EVC 24","address":"9060 Jane St","connectors":"?","powerKW":3.7},{"lat":43.82729,"lng":-79.538883,"name":"Supercharger - Concord","address":"1 Bass Pro Mills Drive","connectors":20,"powerKW":150},{"lat":43.827164,"lng":-79.53267,"name":"YR CS EVC 25","address":"9060 Jane St","connectors":"?","powerKW":3.7},{"lat":43.82735698370041,"lng":-79.55191649284895,"name":"Circle K - Woodbridge","address":"3650 Rutherford Road","connectors":4,"powerKW":180},{"lat":43.816168,"lng":-79.499201,"name":"HTS_ONTARIO HTS_BOWES","address":"615 Bowes Road","connectors":"?","powerKW":3.7},{"lat":43.81656,"lng":-79.499376,"name":"HTS_ONTARIO BOWES_EV2","address":"615 Bowes Road","connectors":"?","powerKW":3.7},{"lat":43.751156,"lng":-79.525541,"name":"HTS_ONTARIO OAKDALE EV2","address":"555 Oakdale Rd","connectors":"?","powerKW":3.7},{"lat":43.821968,"lng":-79.498113,"name":"Invision EV Charging Stations, Inc - DEMO/TESTING","address":"60 Basaltic Road, Unit#15","connectors":"?","powerKW":3.7},{"lat":43.8347398,"lng":-79.5343041,"name":"Maple Mercedes-Benz","address":"9300 Jane Street","connectors":"?","powerKW":50},{"lat":43.833903,"lng":-79.525916,"name":"Joint Operations Centre","address":"2800 Rutherford Rd","connectors":"?","powerKW":3.7},{"lat":43.78829,"lng":-79.47761,"name":"EPIC INVESTMENT 116 VICEROY","address":"116 Viceroy Rd","connectors":"?","powerKW":3.7},{"lat":43.83448,"lng":-79.52835,"name":"The Regional Municipality of York","address":"2850 Rutherford Rd","connectors":"?","powerKW":3.7},{"lat":43.8340746,"lng":-79.525179,"name":"City of Vaughan - Joint Operations Centre","address":"2800 RUTHERFORD RD.","connectors":"?","powerKW":3.7},{"lat":43.83409,"lng":-79.523937,"name":"City of Vaughan","address":"2800 Rutherford Road","connectors":"?","powerKW":3.7},{"lat":43.83681,"lng":-79.537796,"name":"MAPLE-CHARGING SHOP 01","address":"260 Sweetriver Blvd","connectors":"?","powerKW":3.7},{"lat":43.746075,"lng":-79.514495,"name":"City of Toronto","address":"2753 Jane Street","connectors":"?","powerKW":3.7},{"lat":43.7422053,"lng":-79.5310175,"name":"Scout Environmental","address":"130 Arrow Rd","connectors":"?","powerKW":3.7},{"lat":43.7747011,"lng":-79.60359540000002,"name":"La Primavera Hospitality & Convention Center","address":"77 Woodstream Boulevard","connectors":1,"powerKW":null},{"lat":43.8365807,"lng":-79.5598102,"name":"Vellore Village Community Centre","address":"1 VILLA ROYALE AVE","connectors":"?","powerKW":3.7},{"lat":43.81652,"lng":-79.5972,"name":"Ontario Charging Network Al Palladini Community Centre","address":"9201 Islington Ave","connectors":"?","powerKW":50},{"lat":43.83347,"lng":-79.50537,"name":"Rivers of Life Fellowship Association","address":"9111 Keele St","connectors":"?","powerKW":3.7},{"lat":43.833484,"lng":-79.505194,"name":"Rivers of Life","address":"9111 Keele St","connectors":"?","powerKW":3.7},{"lat":43.77721099,"lng":-79.47252915,"name":"EV-olution HQ","address":"300 Supertest Rd","connectors":"?","powerKW":3.7},{"lat":43.75080658,"lng":-79.58441504,"name":"Kipling","address":"2687 Kipling Ave","connectors":"?","powerKW":3.7},{"lat":43.7399264,"lng":-79.528666,"name":"Somerville Auto Group","address":"75 Arrow Road","connectors":"?","powerKW":3.7},{"lat":43.829518,"lng":-79.584241,"name":"Kortright Centre","address":"9550 Pine Valley Dr","connectors":"?","powerKW":3.7},{"lat":43.82707379495313,"lng":-79.58865133071899,"name":"Earth Rangers","address":"9520 Pine Valley Dr","connectors":"?","powerKW":3.7},{"lat":43.767541,"lng":-79.475888,"name":"The Electric Vehicule Discovery Centre","address":"1126 Finch Ave. West","connectors":"?","powerKW":3.7},{"lat":43.7787076459712,"lng":-79.4700275612877,"name":"SWTCH Energy","address":"4800 Dufferin St","connectors":"?","powerKW":3.7},{"lat":43.7783806,"lng":-79.4698672,"name":"TRIDEL EV","address":"4800 Dufferin St","connectors":"?","powerKW":3},{"lat":43.773443,"lng":-79.608508,"name":"Alta Nissan","address":"7625 Martin Grove Rd","connectors":"?","powerKW":3.7},{"lat":43.8375426,"lng":-79.5089382,"name":"Fire Hall 7-2","address":"9290 Keele Street","connectors":"?","powerKW":3.7},{"lat":43.739381,"lng":-79.517963,"name":"INDIGO PARK CTO235-02","address":"2020 Sheppard Avenue West","connectors":"?","powerKW":3.7},{"lat":43.814212,"lng":-79.605967,"name":"Jule - Longo\u2019s Rutherford","address":"5283 Rutherford Road","connectors":4,"powerKW":175},{"lat":43.8147505569201,"lng":-79.6056714237291,"name":"Longo Brothers Fruit Markets Inc","address":"5283 Rutherford Rd","connectors":"?","powerKW":3.7},{"lat":43.770537,"lng":-79.470932,"name":"City of Toronto","address":"21 Alness Street","connectors":"?","powerKW":3.7},{"lat":43.768681,"lng":-79.470978,"name":"City of Toronto","address":"1026 Finch Avenue West","connectors":"?","powerKW":3.7},{"lat":43.77108,"lng":-79.61041,"name":"Gestion Soprema Canada Inc","address":"60 Sovereign Street","connectors":"?","powerKW":3.7},{"lat":43.738518,"lng":-79.564961,"name":"GREENP CP532-002","address":"14 Barkwin Dr","connectors":"?","powerKW":3.7},{"lat":43.738363,"lng":-79.564939,"name":"GREENP CP532-001-FC","address":"14 Barkwin Dr","connectors":"?","powerKW":50},{"lat":43.7356108,"lng":-79.5318033,"name":"Swtch Energy","address":"7 Alloy Ct","connectors":"?","powerKW":3.7},{"lat":43.832547,"lng":-79.592936,"name":"Kortright Centre","address":"9550 Pine Valley DR","connectors":1,"powerKW":8},{"lat":43.830536,"lng":-79.4832,"name":"OFFICE CHARGERS OZZ OFFICE 2","address":"20 Floral Pkwy","connectors":"?","powerKW":3.7},{"lat":43.848007,"lng":-79.542404,"name":"CVH EV3","address":"3268 Major MacKenzie Dr W","connectors":"?","powerKW":3.7},{"lat":43.848059,"lng":-79.542413,"name":"CVH EV1","address":"3268 Major MacKenzie Dr W","connectors":"?","powerKW":3.7},{"lat":43.736892,"lng":-79.507405,"name":"HAZELVIEW 25 RAMBLER","address":"25 Rambler Pl","connectors":"?","powerKW":3.7},{"lat":43.825525,"lng":-79.604428,"name":"TRCA RSC LEVEL 2 - 1","address":"TRCA - Restoration Services Center 9741 Canad","connectors":"?","powerKW":3.7},{"lat":43.8299786,"lng":-79.4807911,"name":"8800 DUFFERIN","address":"8800 Dufferin St","connectors":"?","powerKW":3},{"lat":43.829979,"lng":-79.480791,"name":"8800 DUFFERIN GATEWAY1","address":"8800 Dufferin St","connectors":"?","powerKW":3.7},{"lat":43.758632,"lng":-79.470124,"name":"Johnvince Foods - North York","address":"555 Steeprock DR","connectors":1,"powerKW":13},{"lat":43.740338,"lng":-79.585913,"name":"City of Toronto","address":"1535 Albion Road","connectors":"?","powerKW":3.7},{"lat":43.761855,"lng":-79.465968,"name":"City of Toronto","address":"4330 Dufferin St","connectors":"?","powerKW":3.7},{"lat":43.84978102904665,"lng":-79.55225365449219,"name":"PowerStream Headquarters","address":"161 Cityview Boulevard","connectors":1,"powerKW":50},{"lat":43.849941,"lng":-79.550929,"name":"ALECTRA CITYVIEW 1","address":"161 Cityview Blvd","connectors":"?","powerKW":3.7},{"lat":43.850328,"lng":-79.533229,"name":"Tesla/NACS Supercharger - Vaughan","address":"2911 Major MacKenzie Drive West","connectors":16,"powerKW":250},{"lat":43.756165,"lng":-79.470486,"name":"The Madison Group Corporate HQ (Workplace) - Tesla Destination","address":"369 Rimrock Rd.","connectors":"?","powerKW":3.7},{"lat":43.850417,"lng":-79.550957,"name":"Alectra - 161 Cityview - Public","address":"161 Cityview Blvd.","connectors":"?","powerKW":3.7},{"lat":43.77129792,"lng":-79.6204332,"name":"Essex Powerlines Corp","address":"7681 Highway 27","connectors":"?","powerKW":3.7},{"lat":43.74404,"lng":-79.48314,"name":"Downsview Park","address":"70 Canuck Ave.","connectors":"?","powerKW":3.7},{"lat":43.775451,"lng":-79.623284,"name":"ZENWAY EV CHARGER 1","address":"6220 Hwy 7","connectors":"?","powerKW":3.7},{"lat":43.851854,"lng":-79.542865,"name":"CVH EV6","address":"320 Treasure Rd","connectors":"?","powerKW":3.7},{"lat":43.829254,"lng":-79.606426,"name":"TRCA BFC LEVEL 2 - 1","address":"TRCA - Boyd Field Center 9755 Canada Company","connectors":"?","powerKW":3.7},{"lat":43.81069946,"lng":-79.45870209,"name":"SWTCH Energy Inc.","address":"1054 Centre St","connectors":"?","powerKW":3.7},{"lat":43.81082,"lng":-79.45864,"name":"RioCan Management Inc","address":"1054 Centre St","connectors":"?","powerKW":3.7},{"lat":43.774141,"lng":-79.623672,"name":"ELEMENT SW ELEMENT","address":"6220 Hwy 7","connectors":"?","powerKW":3.7},{"lat":43.747322,"lng":-79.476815,"name":"Centennial College - Downsview Campus","address":"65 Carl Hall Rd","connectors":"?","powerKW":3.7},{"lat":43.782586,"lng":-79.627755,"name":"ZENWAY EV CHARGER 5","address":"8100 Hwy 27","connectors":"?","powerKW":3.7},{"lat":43.8030658,"lng":-79.4527387,"name":"City of Vaughan - Bathurst Clark Resource Library","address":"900 Clark Ave W","connectors":"?","powerKW":3.7},{"lat":43.80323,"lng":-79.45244,"name":"Ontario Charging Network LP Bathurst Clark Resource Library","address":"900 Clark Ave W","connectors":"?","powerKW":50},{"lat":43.7871,"lng":-79.44737,"name":"HAZELVIEW 6020 BATHURST","address":"6020 Bathurst St","connectors":"?","powerKW":3.7},{"lat":43.787694,"lng":-79.446657,"name":"HAZELVIEW 6030 BATHURST","address":"6030 Bathurst St","connectors":"?","powerKW":3.7},{"lat":43.8550945,"lng":-79.5103385,"name":"Civic Centre Resource Library","address":"2191 Major MacKenzie Drive West","connectors":"?","powerKW":3.7},{"lat":43.855533,"lng":-79.510432,"name":"Vaughan Civic Centre Resource Library","address":"2191 Major MacKenzie Dr","connectors":"?","powerKW":3.7},{"lat":43.85556,"lng":-79.508957,"name":"Vaughan City Hall","address":"2141 Major MacKenzie Dr W","connectors":"?","powerKW":3.7},{"lat":43.745113,"lng":-79.614634,"name":"ALBION 6103 ALBION 6103","address":"1839 Albion Rd","connectors":"?","powerKW":3.7},{"lat":43.856403,"lng":-79.506988,"name":"City of Vaughan - City Hall East Parking Lot","address":"2141 Major Mackenzie West","connectors":"?","powerKW":3.7},{"lat":43.776267,"lng":-79.444036,"name":"City of Toronto","address":"5700 Bathurst Street","connectors":"?","powerKW":3.7},{"lat":43.7222338197302,"lng":-79.5108490791698,"name":"First Capital Asset Management LP","address":"2200 Jane St","connectors":"?","powerKW":3.7},{"lat":43.740245,"lng":-79.612663,"name":"NORTH HUMBER-CFT&T","address":"110 Carrier Dr","connectors":"?","powerKW":3.7},{"lat":43.8600373,"lng":-79.5145988,"name":"Maple CC & Library","address":"10190 KEELE ST","connectors":"?","powerKW":3.7},{"lat":43.724462,"lng":-79.494626,"name":"City of Toronto","address":"1300 Wilson Ave","connectors":"?","powerKW":3.7},{"lat":43.725148,"lng":-79.488864,"name":"Humber River Hospital","address":"1235 Wilson Ave","connectors":"?","powerKW":3.7},{"lat":43.794694,"lng":-79.436296,"name":"BMW AUTOHAUS","address":"452-480 Steeles Ave W","connectors":"?","powerKW":3},{"lat":43.71818,"lng":-79.5705,"name":"City of Toronto","address":"2126 Kipling Avenue","connectors":"?","powerKW":3.7},{"lat":43.76428106,"lng":-79.44175838,"name":"Lipa Green Centre","address":"4600 Bathurst St","connectors":"?","powerKW":3.7},{"lat":43.76384062,"lng":-79.44175638,"name":"Prosserman Community Centre","address":"4588 Bathurst St","connectors":"?","powerKW":3.7},{"lat":43.72416,"lng":-79.486343,"name":"EAST&WEST GARAG E P1 DUAL NGW1","address":"125 Sir William Hearst Ave","connectors":"?","powerKW":3.7},{"lat":43.7229152,"lng":-79.4893526,"name":"EAST&WEST GARAG","address":"1201 Sir William Hearst Ave","connectors":"?","powerKW":3},{"lat":43.722896,"lng":-79.489336,"name":"EAST&WEST GARAG W P0 SINGLE GW","address":"1201 Sir William Hearst Ave","connectors":"?","powerKW":3.7},{"lat":43.80504682,"lng":-79.43576839,"name":"The Conservatory II","address":"343 Clark Ave W","connectors":"?","powerKW":3.7},{"lat":43.729894,"lng":-79.608063,"name":"NORTH LOT 9C2","address":"205 Humber College Blvd","connectors":"?","powerKW":3.7},{"lat":43.72761,"lng":-79.604173,"name":"NORTH 2","address":"199 Humber College Blvd","connectors":"?","powerKW":3.7},{"lat":43.72754,"lng":-79.604141,"name":"NORTH 6","address":"199 Humber College Blvd","connectors":"?","powerKW":3.7},{"lat":43.7226068775353,"lng":-79.59705333539138,"name":"Ivy - Etobicoke Mobil","address":"330 Queens Plate Drive","connectors":2,"powerKW":50},{"lat":43.72142850952537,"lng":-79.59559138638652,"name":"Ontario Charging Network LP","address":"330 Queens Plate Dr","connectors":"?","powerKW":50},{"lat":43.7214387,"lng":-79.5962916,"name":"Fortinos","address":"330 Queensplate Dr","connectors":"?","powerKW":50},{"lat":43.7112567,"lng":-79.5608708,"name":"Toronto Hydro-Electric System Limited","address":"71 Rexdale Ave","connectors":"?","powerKW":3.7},{"lat":43.49610138,"lng":-79.8742981,"name":"SWTCH Energy Inc.","address":"6901 Derry Rd","connectors":"?","powerKW":3.7},{"lat":43.496535838351,"lng":-79.8738619027942,"name":"First Capital Asset Management LP","address":"6901 Derry Rd W","connectors":"?","powerKW":3.7},{"lat":43.49723,"lng":-79.870598,"name":"HHEALTHCARE MDH STATION 1","address":"725 Bronte St S","connectors":"?","powerKW":3.7},{"lat":43.497874,"lng":-79.868957,"name":"HHEALTHCARE MDH STATION 6","address":"725 Bronte St S","connectors":"?","powerKW":3.7},{"lat":43.495722,"lng":-79.868984,"name":"HHEALTHCARE MDH STATION 2","address":"725 Bronte St S","connectors":"?","powerKW":3.7},{"lat":43.497338,"lng":-79.867462,"name":"HHEALTHCARE MDH STATION 7","address":"725 Bronte St S","connectors":"?","powerKW":3.7},{"lat":43.52252,"lng":-79.89391,"name":"Petro-Canada - Milton","address":"235 Steeles Avenue East","connectors":5,"powerKW":200},{"lat":43.5035087,"lng":-79.9220613,"name":"Area 8 Conservation Area","address":"5437 Steeles Avenue West","connectors":"?","powerKW":3.7},{"lat":43.5235,"lng":-79.89952,"name":"FLO - Canadian Tire - Milton","address":"20 Market Drive","connectors":4,"powerKW":50},{"lat":43.475544,"lng":-79.875513,"name":"Mattamy National Cycling Centre","address":"2015 Pan Am Blvd","connectors":"?","powerKW":3.7},{"lat":43.525871,"lng":-79.907297,"name":"Best Western Plus - Milton","address":"161 Chisholm Dr","connectors":"?","powerKW":3.7},{"lat":43.529493,"lng":-79.886093,"name":"Milton Nissan","address":"585 Steeles Ave E","connectors":"?","powerKW":3.7},{"lat":43.5252372,"lng":-79.9132809,"name":"Best Western Plus Milton","address":"161 Chisholm Drive","connectors":1,"powerKW":15},{"lat":43.526654,"lng":-79.869594,"name":"Wallace Cadillac - Fast Charger","address":"801 MAIN ST E","connectors":"?","powerKW":50},{"lat":43.526654,"lng":-79.869594,"name":"Wallace Cadillac - Outdoor","address":"801 MAIN ST E","connectors":"?","powerKW":3.7},{"lat":43.5273412,"lng":-79.8668651,"name":"GWL - Milton Commons Mall","address":"860 Main Street E","connectors":"?","powerKW":3.7},{"lat":43.527478,"lng":-79.866912,"name":"GWL - Milton Commons Mall","address":"860 Main Street E","connectors":"?","powerKW":3.7},{"lat":43.5318,"lng":-79.90244,"name":"CONESTOGACOLLEG PARKHILL S3","address":"8160 Parkhill Dr","connectors":"?","powerKW":3.7},{"lat":43.50622,"lng":-79.83783,"name":"Tim Hortons","address":"1088 Thompson Rd. S.","connectors":2,"powerKW":10},{"lat":43.53685,"lng":-79.87435,"name":"Jule - Longo's Milton","address":"1079 Maple Avenue","connectors":10,"powerKW":175},{"lat":43.5375866084474,"lng":-79.8736705967493,"name":"Longo Brothers Fruit Markets Inc","address":"1079 Maple Ave","connectors":"?","powerKW":3.7},{"lat":43.53756194,"lng":-79.87132295,"name":"LA Fitness - Tesla Supercharger","address":"1149 Maple Ave","connectors":"?","powerKW":50},{"lat":43.5106359,"lng":-79.9431339,"name":"Kelso Conservation Area - Boat Rentals","address":"5234 Kelso Road","connectors":"?","powerKW":3.7},{"lat":43.5033279,"lng":-79.9478953,"name":"Kelso Conservation Area - Visitor Center","address":"5234 Kelso Road","connectors":"?","powerKW":3.7},{"lat":43.541451,"lng":-79.873346,"name":"ACHILLES MAZDA ACHILLIES MAZ 2","address":"1195 Steeles Ave E","connectors":"?","powerKW":3.7},{"lat":43.543506,"lng":-79.871057,"name":"MILTON TOYOTA MT STATION 1","address":"1245 Steeles Avenue East","connectors":"?","powerKW":3.7},{"lat":43.5454372612233,"lng":-79.917486331247,"name":"Aecon Construction Group Inc","address":"8401 No-5 Side Rd","connectors":"?","powerKW":3.7},{"lat":43.5060352,"lng":-79.9629202,"name":"Hilton Falls Conservation Area","address":"4985 Campbellville Road","connectors":"?","powerKW":3.7},{"lat":43.552694,"lng":-79.863633,"name":"BGO - MTC 8041 FIFTH LINE","address":"8041 Fifth Line","connectors":"?","powerKW":3.7},{"lat":43.552608,"lng":-79.861008,"name":"BGO - MTC 8039 FIFTH LINE","address":"8039 Fifth Line N","connectors":"?","powerKW":3.7},{"lat":43.5429775,"lng":-79.8373527999999,"name":"Menkes Property Management Services Ltd","address":"7275 Fifth line","connectors":"?","powerKW":3.7},{"lat":43.488696,"lng":-79.984332,"name":"Autoloyalty - Tesla Destination","address":"90 Main St. N","connectors":"?","powerKW":3.7},{"lat":43.487728,"lng":-79.985037,"name":"CCC1 CAMPBELLVILL L3","address":"35 Crawford Crescent","connectors":"?","powerKW":50},{"lat":43.4877362,"lng":-79.9850599,"name":"EVCO","address":"35 Crawford Crescent","connectors":"?","powerKW":40},{"lat":43.48947,"lng":-79.988896,"name":"MTOCP 401 & GUELPH 1","address":"2675 Reid Sideroad Carpool Lot","connectors":"?","powerKW":3.7},{"lat":43.489278,"lng":-79.988876,"name":"MTOCP","address":"ON-401","connectors":"?","powerKW":3},{"lat":43.42363909,"lng":-79.90323303,"name":"The Halton Region Consevation Authority","address":"2596 Britannia Rd W","connectors":"?","powerKW":3.7},{"lat":43.4180216,"lng":-79.8811792,"name":"Mount Nemo Conservation Area","address":"5317 Guelph Line","connectors":"?","powerKW":3.7},{"lat":43.5760960968127,"lng":-79.8321421916351,"name":"Electrify Canada - Toronto Premium Outlets","address":"13850 Steeles Ave West","connectors":4,"powerKW":50},{"lat":43.576473,"lng":-79.82757,"name":"Toronto Premium Outlets","address":"13850 Steeles Avenue W Halton Hills, Ontario","connectors":"?","powerKW":40},{"lat":43.411876091,"lng":-79.80876877,"name":"Aecon Construction Group Inc","address":"3090 Harrisson Court","connectors":"?","powerKW":3.7},{"lat":43.4595859,"lng":-80.0310841,"name":"Mountsberg Conservation Area","address":"2259 Milburough Town Line","connectors":"?","powerKW":3.7},{"lat":43.398886,"lng":-79.818448,"name":"NORTON PARK NORTON PARK","address":"3035 Tim Dobbie Dr","connectors":"?","powerKW":3.7},{"lat":43.404863,"lng":-79.803618,"name":"RBC Royal Bank","address":"2435 Appleby Ln","connectors":"?","powerKW":3.7},{"lat":43.6185853,"lng":-79.884585,"name":"Ontario Charging Network","address":"14007 10th Side Road","connectors":"?","powerKW":3.7},{"lat":43.6186630003557,"lng":-79.8839478171773,"name":"Halton Hills Fire Station","address":"14007 10th Side Rd","connectors":"?","powerKW":3.7},{"lat":43.618875930344245,"lng":-79.8841978873428,"name":"Ivy Halton Hills Fire Hall","address":"14007 10th Side Road","connectors":1,"powerKW":7.2},{"lat":43.600303,"lng":-79.800164,"name":"Conestoga Cold Storage Limited","address":"7876 Tenth Line","connectors":"?","powerKW":3.7},{"lat":43.582761,"lng":-79.765219,"name":"Swtch Energy","address":"6750 Winston Churchill Blvd","connectors":"?","powerKW":3.7},{"lat":43.598406,"lng":-79.786219,"name":"Mississauga, on - Meadowvale Supercharger","address":"3155 Argentia Road","connectors":16,"powerKW":120},{"lat":43.39669,"lng":-79.79577,"name":"FLO - Canadian Tire - Burlington North","address":"2070 Appleby Line","connectors":2,"powerKW":320},{"lat":43.58285,"lng":-79.76249,"name":"First Capital Asset Management LP","address":"6677 Meadowvale Town Centre Cir","connectors":"?","powerKW":3.7},{"lat":43.58351484054563,"lng":-79.75977665940398,"name":"Ontario Charging Network LP","address":"6677 Meadowvale Town Centre Cir","connectors":"?","powerKW":3.7},{"lat":43.59808,"lng":-79.77959,"name":"Ontario Charging Network LP-Home Depot","address":"2920 Argentia Rd","connectors":"?","powerKW":50},{"lat":43.58442441130566,"lng":-79.75979777115828,"name":"Ivy - Meadowvale Town Centre","address":"6677 Meadowvale Town Centre Circle","connectors":2,"powerKW":50},{"lat":43.599742,"lng":-79.780726,"name":"ARGENTIA 2885 ARGENTIA","address":"2915 Argentia Rd","connectors":"?","powerKW":3.7},{"lat":43.3945828260368,"lng":-79.7896189540519,"name":"Longo Brothers Fruit Markets Inc","address":"2900 Walkers Line","connectors":"?","powerKW":3.7},{"lat":43.6029,"lng":-79.7833,"name":"Conestoga Cold Storage Limited","address":"2660 Meadowpine Blvd","connectors":"?","powerKW":3.7},{"lat":43.600091,"lng":-79.778092,"name":"ARGENTIA 2915 ARGENTIA","address":"2885 Argentia Rd","connectors":"?","powerKW":3.7},{"lat":43.599492,"lng":-79.776527,"name":"ARGENTIA 2875 ARGENTIA","address":"2875 Argentia Rd","connectors":"?","powerKW":3.7},{"lat":43.5864540415645,"lng":-79.7573453296419,"name":"Lakeview Place","address":"2770 Aquitaine Ave","connectors":"?","powerKW":3.7},{"lat":43.3758817019105,"lng":-79.836276799256,"name":"First Capital Asset Management LP","address":"2501 Guelph Line","connectors":"?","powerKW":3.7},{"lat":43.3742473837395,"lng":-79.8366116599543,"name":"First Capital Asset Management LP","address":"2400 Guelph Line","connectors":"?","powerKW":3.7},{"lat":43.382221,"lng":-79.800312,"name":"TANSLEY WOODS TANSLEY WOODS 1","address":"1996 Itabashi Way","connectors":"?","powerKW":3.7},{"lat":43.381755,"lng":-79.799393,"name":"TANSLEY WOODS TANSLEY WOODS 2","address":"1996 Itabashi Way","connectors":"?","powerKW":3.7},{"lat":43.390405,"lng":-79.779162,"name":"Oasis at Mainway","address":"5045 Mainway","connectors":"?","powerKW":3.7},{"lat":43.3904271,"lng":-79.77767849999998,"name":"Eaton Canada","address":"5050 Mainway","connectors":2,"powerKW":7.2},{"lat":43.39749908,"lng":-79.76480103,"name":"SWTCH Energy","address":"5353 John Lucas dr","connectors":"?","powerKW":3.7},{"lat":43.3961479,"lng":-79.766871,"name":"Swtch Energy","address":"5353 John Lucas Dr","connectors":"?","powerKW":3.7},{"lat":43.38760249626951,"lng":-79.78201746940613,"name":"Pioneer on Mainway and Appleby Line","address":"4499 Mainway","connectors":1,"powerKW":null},{"lat":43.387155,"lng":-79.782183,"name":"Pioneer Fuel Station","address":"4499 Mainway","connectors":"?","powerKW":3.7},{"lat":43.38759715,"lng":-79.78045248,"name":"Shell Canada","address":"1235 Appleby Line","connectors":"?","powerKW":3.7},{"lat":43.3875274099112,"lng":-79.78053267261112,"name":"Shell Recharge - C12416 Burlington EV","address":"1235 Appleby Line","connectors":2,"powerKW":50},{"lat":43.39649963,"lng":-79.76390076,"name":"SWTCH Energy","address":"5555 N Service Rd","connectors":"?","powerKW":3.7},{"lat":43.3968618,"lng":-79.7632004,"name":"Swtch Energy","address":"5555 N Service Rd","connectors":"?","powerKW":3.7},{"lat":43.389221,"lng":-79.773143,"name":"FENGATE STATION CT4K-GW1","address":"1105 Clay Ave","connectors":"?","powerKW":3.7},{"lat":43.6007509735869,"lng":-79.7562755305698,"name":"SWTCH Energy","address":"2476 Argentia Rd","connectors":"?","powerKW":3.7},{"lat":43.386087,"lng":-79.776842,"name":"APPLEBY ARENA APPLEBY ARENA 2","address":"1201 Appleby Line","connectors":"?","powerKW":3.7},{"lat":43.5927,"lng":-79.7438,"name":"SWTCH Energy Inc.","address":"6535 Millcreek Dr","connectors":"?","powerKW":3.7},{"lat":43.5944,"lng":-79.7454,"name":"SWTCH Energy Inc.","address":"2333 Millrace Dr","connectors":"?","powerKW":3.7},{"lat":43.638755,"lng":-79.931414,"name":"Town of Halton Hills - Town Hall","address":"1 Halton Hills Drive","connectors":"?","powerKW":3.7},{"lat":43.361159,"lng":-79.846859,"name":"BRANT HILLS CC BRANT HILLS CC","address":"2255 Brant Street","connectors":"?","powerKW":3.7},{"lat":43.59953,"lng":-79.749366,"name":"Kingstec Technologies Inc","address":"2335 Argentia Road","connectors":"?","powerKW":3.7},{"lat":43.391827,"lng":-79.76202,"name":"FENGATE STATION STATION1122-GW1","address":"1122 International Blvd","connectors":"?","powerKW":3.7},{"lat":43.39151,"lng":-79.761734,"name":"FENGATE STATION STATION1122-GW2","address":"602-1122 International Blvd","connectors":"?","powerKW":3.7},{"lat":43.605554,"lng":-79.756064,"name":"Alectra - 2185 Derry Rd - Public (L3 -50kW)","address":"2185 Derry Rd W","connectors":"?","powerKW":50},{"lat":43.605041,"lng":-79.754735,"name":"Enersource Head Office","address":"2185 Derry Rd W","connectors":"?","powerKW":3.7},{"lat":43.605864,"lng":-79.755256,"name":"ALECTRA DERRY FLEET","address":"2185 Derry Rd W","connectors":"?","powerKW":3.7},{"lat":43.606237,"lng":-79.755756,"name":"ALECTRA DERRY EMP 1","address":"2185 Derry Rd W","connectors":"?","powerKW":3.7},{"lat":43.606398,"lng":-79.755591,"name":"Alectra Utilities Corp","address":"2185 Derry Rd West","connectors":"?","powerKW":50},{"lat":43.37317,"lng":-79.79516,"name":"MAINWAY ARENA MAINWAY ARENA","address":"4015 Mainway","connectors":"?","powerKW":3.7},{"lat":43.6396936,"lng":-79.9402519,"name":"Ontario Charging Network","address":"11620 Trafalgar Road","connectors":"?","powerKW":3.7},{"lat":43.6028522,"lng":-79.7500563,"name":"6925 Century Avenue","address":"6925 Century Avenue","connectors":"?","powerKW":3.7},{"lat":43.6401187867073,"lng":-79.9390768640692,"name":"R.C. Austin Operations Centre","address":"11620 Trafalgar Rd","connectors":"?","powerKW":3.7},{"lat":43.639913581921746,"lng":-79.94051117943113,"name":"Ivy Halton Hills Joint Operations Centre","address":"11620 Trafalgar Road","connectors":2,"powerKW":7.2}]